{"type":"FeatureCollection","bbox":[139.787178,34.908812,140.860578,36.088169],"features":[{"type":"Feature","properties":{"P29_001":"12101","P29_002":"16","P29_003":"16002","P29_004":"16002","P29_005":"葛城中学校","P29_006":"葛城2-9-1","P29_007":3,"label":"葛城中"},"geometry":{"type":"Point","coordinates":[140.131129,35.600839]}},{"type":"Feature","properties":{"P29_001":"12101","P29_002":"16","P29_003":"16002","P29_004":"16002","P29_005":"松ケ丘中学校","P29_006":"松ケ丘町440","P29_007":3,"label":"松ケ丘中"},"geometry":{"type":"Point","coordinates":[140.152625,35.587756]}},{"type":"Feature","properties":{"P29_001":"12101","P29_002":"16","P29_003":"16002","P29_004":"16002","P29_005":"新宿中学校","P29_006":"問屋町1-73","P29_007":3,"label":"新宿中"},"geometry":{"type":"Point","coordinates":[140.109212,35.604364]}},{"type":"Feature","properties":{"P29_001":"12101","P29_002":"16","P29_003":"16002","P29_004":"16002","P29_005":"星久喜中学校","P29_006":"星久喜町823","P29_007":3,"label":"星久喜中"},"geometry":{"type":"Point","coordinates":[140.15207,35.600783]}},{"type":"Feature","properties":{"P29_001":"12101","P29_002":"16","P29_003":"16002","P29_004":"16002","P29_005":"生浜中学校","P29_006":"南生実町258","P29_007":3,"label":"生浜中"},"geometry":{"type":"Point","coordinates":[140.144148,35.557121]}},{"type":"Feature","properties":{"P29_001":"12101","P29_002":"16","P29_003":"16002","P29_004":"16002","P29_005":"千葉明徳中学校","P29_006":"南生実町1412","P29_007":4,"label":"千葉明徳中"},"geometry":{"type":"Point","coordinates":[140.15479,35.560981]}},{"type":"Feature","properties":{"P29_001":"12101","P29_002":"16","P29_003":"16002","P29_004":"16002","P29_005":"川戸中学校","P29_006":"川戸町443","P29_007":3,"label":"川戸中"},"geometry":{"type":"Point","coordinates":[140.167929,35.583951]}},{"type":"Feature","properties":{"P29_001":"12101","P29_002":"16","P29_003":"16002","P29_004":"16002","P29_005":"蘇我中学校","P29_006":"白旗1-5-3","P29_007":3,"label":"蘇我中"},"geometry":{"type":"Point","coordinates":[140.138377,35.577312]}},{"type":"Feature","properties":{"P29_001":"12101","P29_002":"16","P29_003":"16002","P29_004":"16002","P29_005":"椿森中学校","P29_006":"椿森4-1-1","P29_007":3,"label":"椿森中"},"geometry":{"type":"Point","coordinates":[140.12071,35.622362]}},{"type":"Feature","properties":{"P29_001":"12101","P29_002":"16","P29_003":"16002","P29_004":"16002","P29_005":"末広中学校","P29_006":"末広2-10-1","P29_007":3,"label":"末広中"},"geometry":{"type":"Point","coordinates":[140.126518,35.5967]}},{"type":"Feature","properties":{"P29_001":"12101","P29_002":"16","P29_003":"99999","P29_004":"16002","P29_005":"千葉中学校","P29_006":"葛城1-5-2","P29_007":2,"label":"千葉中"},"geometry":{"type":"Point","coordinates":[140.12851102900936,35.599974583644645]}},{"type":"Feature","properties":{"P29_001":"12102","P29_002":"16","P29_003":"16002","P29_004":"16002","P29_005":"こてはし台中学校","P29_006":"こてはし台5-15-1","P29_007":3,"label":"こてはし台中"},"geometry":{"type":"Point","coordinates":[140.119264,35.691685]}},{"type":"Feature","properties":{"P29_001":"12102","P29_002":"16","P29_003":"16002","P29_004":"16002","P29_005":"さつきが丘中学校","P29_006":"さつきが丘2-15","P29_007":3,"label":"さつきが丘中"},"geometry":{"type":"Point","coordinates":[140.091489,35.668271]}},{"type":"Feature","properties":{"P29_001":"12102","P29_002":"16","P29_003":"16002","P29_004":"16002","P29_005":"花園中学校","P29_006":"花園4-1-1","P29_007":3,"label":"花園中"},"geometry":{"type":"Point","coordinates":[140.074158,35.655216]}},{"type":"Feature","properties":{"P29_001":"12102","P29_002":"16","P29_003":"16002","P29_004":"16002","P29_005":"花見川第一中学校","P29_006":"花見川6-2","P29_007":3,"label":"花見川第一中"},"geometry":{"type":"Point","coordinates":[140.102515,35.689019]}},{"type":"Feature","properties":{"P29_001":"12102","P29_002":"16","P29_003":"16002","P29_004":"16002","P29_005":"花見川第二中学校","P29_006":"天戸町1428-1","P29_007":3,"label":"花見川第二中"},"geometry":{"type":"Point","coordinates":[140.087239,35.682547]}},{"type":"Feature","properties":{"P29_001":"12102","P29_002":"16","P29_003":"16002","P29_004":"16002","P29_005":"朝日ケ丘中学校","P29_006":"朝日ケ丘2-4-1","P29_007":3,"label":"朝日ケ丘中"},"geometry":{"type":"Point","coordinates":[140.087951,35.656326]}},{"type":"Feature","properties":{"P29_001":"12102","P29_002":"16","P29_003":"16002","P29_004":"16002","P29_005":"天戸中学校","P29_006":"天戸町1429","P29_007":3,"label":"天戸中"},"geometry":{"type":"Point","coordinates":[140.087045,35.681241]}},{"type":"Feature","properties":{"P29_001":"12102","P29_002":"16","P29_003":"16002","P29_004":"16002","P29_005":"幕張中学校","P29_006":"幕張町4-45","P29_007":3,"label":"幕張中"},"geometry":{"type":"Point","coordinates":[140.059048,35.662854]}},{"type":"Feature","properties":{"P29_001":"12102","P29_002":"16","P29_003":"16002","P29_004":"16002","P29_005":"幕張本郷中学校","P29_006":"幕張本郷5-18-1","P29_007":3,"label":"幕張本郷中"},"geometry":{"type":"Point","coordinates":[140.047188,35.671603]}},{"type":"Feature","properties":{"P29_001":"12102","P29_002":"16","P29_003":"16002","P29_004":"16002","P29_005":"緑が丘中学校","P29_006":"犢橋町213-4","P29_007":3,"label":"緑が丘中"},"geometry":{"type":"Point","coordinates":[140.111265,35.664355]}},{"type":"Feature","properties":{"P29_001":"12102","P29_002":"16","P29_003":"16002","P29_004":"16002","P29_005":"犢橋中学校","P29_006":"三角町656-2","P29_007":3,"label":"犢橋中"},"geometry":{"type":"Point","coordinates":[140.116987,35.677604]}},{"type":"Feature","properties":{"P29_001":"12103","P29_002":"16","P29_003":"16002","P29_004":"16002","P29_005":"稲毛中学校","P29_006":"稲毛町5-120","P29_007":3,"label":"稲毛中"},"geometry":{"type":"Point","coordinates":[140.082157,35.643884]}},{"type":"Feature","properties":{"P29_001":"12103","P29_002":"16","P29_003":"16002","P29_004":"16002","P29_005":"轟町中学校","P29_006":"轟町3-5-14","P29_007":3,"label":"轟町中"},"geometry":{"type":"Point","coordinates":[140.108432,35.630276]}},{"type":"Feature","properties":{"P29_001":"12103","P29_002":"16","P29_003":"16002","P29_004":"16002","P29_005":"小中台中学校","P29_006":"小仲台9-46-2","P29_007":3,"label":"小中台中"},"geometry":{"type":"Point","coordinates":[140.100255,35.645737]}},{"type":"Feature","properties":{"P29_001":"12103","P29_002":"16","P29_003":"16002","P29_004":"16002","P29_005":"千草台中学校","P29_006":"千草台2-3-1","P29_007":3,"label":"千草台中"},"geometry":{"type":"Point","coordinates":[140.118097,35.636859]}},{"type":"Feature","properties":{"P29_001":"12103","P29_002":"16","P29_003":"16002","P29_004":"16002","P29_005":"千葉大学教育学部附属中学校","P29_006":"弥生町1-33","P29_007":1,"label":"千葉大学教育学部附属中"},"geometry":{"type":"Point","coordinates":[140.100767,35.63072]}},{"type":"Feature","properties":{"P29_001":"12103","P29_002":"16","P29_003":"16002","P29_004":"16002","P29_005":"草野中学校","P29_006":"園生町1397","P29_007":3,"label":"草野中"},"geometry":{"type":"Point","coordinates":[140.127431,35.652496]}},{"type":"Feature","properties":{"P29_001":"12103","P29_002":"16","P29_003":"16002","P29_004":"16002","P29_005":"都賀中学校","P29_006":"作草部町1306-1","P29_007":3,"label":"都賀中"},"geometry":{"type":"Point","coordinates":[140.12318,35.63075]}},{"type":"Feature","properties":{"P29_001":"12103","P29_002":"16","P29_003":"16002","P29_004":"16002","P29_005":"緑町中学校","P29_006":"緑町2-3-1","P29_007":3,"label":"緑町中"},"geometry":{"type":"Point","coordinates":[140.097379,35.622721]}},{"type":"Feature","properties":{"P29_001":"12104","P29_002":"16","P29_003":"16002","P29_004":"16002","P29_005":"みつわ台中学校","P29_006":"みつわ台2-41-1","P29_007":3,"label":"みつわ台中"},"geometry":{"type":"Point","coordinates":[140.131208,35.635388]}},{"type":"Feature","properties":{"P29_001":"12104","P29_002":"16","P29_003":"16002","P29_004":"16002","P29_005":"加曽利中学校","P29_006":"加曽利町961-5","P29_007":3,"label":"加曽利中"},"geometry":{"type":"Point","coordinates":[140.157674,35.613844]}},{"type":"Feature","properties":{"P29_001":"12104","P29_002":"16","P29_003":"16002","P29_004":"16002","P29_005":"貝塚中学校","P29_006":"貝塚町1-7-1","P29_007":3,"label":"貝塚中"},"geometry":{"type":"Point","coordinates":[140.1533390443364,35.62395638015431]}},{"type":"Feature","properties":{"P29_001":"12104","P29_002":"16","P29_003":"16002","P29_004":"16002","P29_005":"更科中学校","P29_006":"更科町2112","P29_007":3,"label":"更科中"},"geometry":{"type":"Point","coordinates":[140.226451,35.617643]}},{"type":"Feature","properties":{"P29_001":"12104","P29_002":"16","P29_003":"16002","P29_004":"16002","P29_005":"山王中学校","P29_006":"若松町774","P29_007":3,"label":"山王中"},"geometry":{"type":"Point","coordinates":[140.142652,35.653025]}},{"type":"Feature","properties":{"P29_001":"12104","P29_002":"16","P29_003":"16002","P29_004":"16002","P29_005":"若松中学校","P29_006":"若松町2106-2","P29_007":3,"label":"若松中"},"geometry":{"type":"Point","coordinates":[140.169597,35.635725]}},{"type":"Feature","properties":{"P29_001":"12104","P29_002":"16","P29_003":"16002","P29_004":"16002","P29_005":"千城台西中学校","P29_006":"千城台西2-20-1","P29_007":3,"label":"千城台西中"},"geometry":{"type":"Point","coordinates":[140.184648,35.621531]}},{"type":"Feature","properties":{"P29_001":"12104","P29_002":"16","P29_003":"16002","P29_004":"16002","P29_005":"千城台南中学校","P29_006":"千城台南1-20-1","P29_007":3,"label":"千城台南中"},"geometry":{"type":"Point","coordinates":[140.189564,35.618031]}},{"type":"Feature","properties":{"P29_001":"12104","P29_002":"16","P29_003":"16002","P29_004":"16002","P29_005":"大宮中学校","P29_006":"大宮町2077","P29_007":3,"label":"大宮中"},"geometry":{"type":"Point","coordinates":[140.186623,35.586283]}},{"type":"Feature","properties":{"P29_001":"12104","P29_002":"16","P29_003":"16002","P29_004":"16002","P29_005":"白井中学校","P29_006":"野呂町623","P29_007":3,"label":"白井中"},"geometry":{"type":"Point","coordinates":[140.225482,35.587561]}},{"type":"Feature","properties":{"P29_001":"12105","P29_002":"16","P29_003":"16002","P29_004":"16002","P29_005":"越智中学校","P29_006":"越智町651","P29_007":3,"label":"越智中"},"geometry":{"type":"Point","coordinates":[140.241369,35.533456]}},{"type":"Feature","properties":{"P29_001":"12105","P29_002":"16","P29_003":"16002","P29_004":"16002","P29_005":"泉谷中学校","P29_006":"おゆみ野中央4-2","P29_007":3,"label":"泉谷中"},"geometry":{"type":"Point","coordinates":[140.172597,35.554787]}},{"type":"Feature","properties":{"P29_001":"12105","P29_002":"16","P29_003":"16002","P29_004":"16002","P29_005":"大椎中学校","P29_006":"あすみが丘8-26","P29_007":3,"label":"大椎中"},"geometry":{"type":"Point","coordinates":[140.270018,35.516459]}},{"type":"Feature","properties":{"P29_001":"12105","P29_002":"16","P29_003":"16002","P29_004":"16002","P29_005":"土気中学校","P29_006":"土気町1400","P29_007":3,"label":"土気中"},"geometry":{"type":"Point","coordinates":[140.272532,35.540957]}},{"type":"Feature","properties":{"P29_001":"12105","P29_002":"16","P29_003":"16002","P29_004":"16002","P29_005":"土気南中学校","P29_006":"あすみが丘4-38","P29_007":3,"label":"土気南中"},"geometry":{"type":"Point","coordinates":[140.26123,35.524965]}},{"type":"Feature","properties":{"P29_001":"12105","P29_002":"16","P29_003":"16002","P29_004":"16002","P29_005":"有吉中学校","P29_006":"おゆみ野2-41","P29_007":3,"label":"有吉中"},"geometry":{"type":"Point","coordinates":[140.170661,35.56055]}},{"type":"Feature","properties":{"P29_001":"12105","P29_002":"16","P29_003":"16002","P29_004":"16002","P29_005":"誉田中学校","P29_006":"誉田町1-138","P29_007":3,"label":"誉田中"},"geometry":{"type":"Point","coordinates":[140.202818,35.552509]}},{"type":"Feature","properties":{"P29_001":"12105","P29_002":"16","P29_003":"99999","P29_004":"16002","P29_005":"おゆみ野南中学校","P29_006":"おゆみ野南5-25","P29_007":3,"label":"おゆみ野南中"},"geometry":{"type":"Point","coordinates":[140.17749118444897,35.54475547808066]}},{"type":"Feature","properties":{"P29_001":"12106","P29_002":"16","P29_003":"16002","P29_004":"16002","P29_005":"磯辺第一中学校","P29_006":"磯辺7-1-1","P29_007":3,"label":"磯辺第一中"},"geometry":{"type":"Point","coordinates":[140.054068,35.632761]}},{"type":"Feature","properties":{"P29_001":"12106","P29_002":"16","P29_003":"16002","P29_004":"16002","P29_005":"磯辺第二中学校","P29_006":"磯辺1-50-1","P29_007":3,"label":"磯辺第二中"},"geometry":{"type":"Point","coordinates":[140.062493,35.62747]}},{"type":"Feature","properties":{"P29_001":"12106","P29_002":"16","P29_003":"16002","P29_004":"16002","P29_005":"稲浜中学校","P29_006":"稲毛海岸2-3-3","P29_007":3,"label":"稲浜中"},"geometry":{"type":"Point","coordinates":[140.082241,35.632886]}},{"type":"Feature","properties":{"P29_001":"12106","P29_002":"16","P29_003":"16002","P29_004":"16002","P29_005":"幸町第一中学校","P29_006":"幸町2-12-7","P29_007":3,"label":"幸町第一中"},"geometry":{"type":"Point","coordinates":[140.090491,35.621193]}},{"type":"Feature","properties":{"P29_001":"12106","P29_002":"16","P29_003":"16002","P29_004":"16002","P29_005":"幸町第二中学校","P29_006":"幸町1-10-2","P29_007":3,"label":"幸町第二中"},"geometry":{"type":"Point","coordinates":[140.098074,35.612584]}},{"type":"Feature","properties":{"P29_001":"12106","P29_002":"16","P29_003":"16002","P29_004":"16002","P29_005":"高洲第一中学校","P29_006":"高洲2-3-18","P29_007":3,"label":"高洲第一中"},"geometry":{"type":"Point","coordinates":[140.077381,35.623137]}},{"type":"Feature","properties":{"P29_001":"12106","P29_002":"16","P29_003":"16002","P29_004":"16002","P29_005":"高洲第二中学校","P29_006":"高洲4-4-3","P29_007":3,"label":"高洲第二中"},"geometry":{"type":"Point","coordinates":[140.071798,35.632525]}},{"type":"Feature","properties":{"P29_001":"12106","P29_002":"16","P29_003":"16002","P29_004":"16002","P29_005":"高浜中学校","P29_006":"高浜4-8-1","P29_007":3,"label":"高浜中"},"geometry":{"type":"Point","coordinates":[140.071048,35.623748]}},{"type":"Feature","properties":{"P29_001":"12106","P29_002":"16","P29_003":"16002","P29_004":"16002","P29_005":"渋谷教育学園幕張中学校","P29_006":"若葉1-3","P29_007":4,"label":"渋谷教育学園幕張中"},"geometry":{"type":"Point","coordinates":[140.046327,35.655049]}},{"type":"Feature","properties":{"P29_001":"12106","P29_002":"16","P29_003":"16002","P29_004":"16002","P29_005":"昭和学院秀英中学校","P29_006":"若葉1-2","P29_007":4,"label":"昭和学院秀英中"},"geometry":{"type":"Point","coordinates":[140.04641,35.654549]}},{"type":"Feature","properties":{"P29_001":"12106","P29_002":"16","P29_003":"16002","P29_004":"16002","P29_005":"打瀬中学校","P29_006":"打瀬3-12-1","P29_007":3,"label":"打瀬中"},"geometry":{"type":"Point","coordinates":[140.04311320471012,35.636863925554934]}},{"type":"Feature","properties":{"P29_001":"12106","P29_002":"16","P29_003":"16002","P29_004":"16002","P29_005":"幕張西中学校","P29_006":"幕張西2-9-1","P29_007":3,"label":"幕張西中"},"geometry":{"type":"Point","coordinates":[140.037605,35.663437]}},{"type":"Feature","properties":{"P29_001":"12106","P29_002":"16","P29_003":"99999","P29_004":"16002","P29_005":"稲毛高等学校附属中学校","P29_006":"高浜3-1-1","P29_007":3,"label":"稲毛高等学校附属中"},"geometry":{"type":"Point","coordinates":[140.06860631416862,35.61997528024548]}},{"type":"Feature","properties":{"P29_001":"12106","P29_002":"16","P29_003":"99999","P29_004":"16002","P29_005":"真砂中学校","P29_006":"真砂5-18-2","P29_007":3,"label":"真砂中"},"geometry":{"type":"Point","coordinates":[140.06315860650238,35.645185679403376]}}]}