{"type":"FeatureCollection","features":[{"type":"Feature","properties":{"P29_001":"22131","P29_002":"16","P29_003":"16002","P29_004":"16002","P29_005":"浜松学院中学校","P29_006":"高林1-17-2","P29_007":4,"label":"浜松学院中"},"geometry":{"type":"Point","coordinates":[137.729158,34.727917]}},{"type":"Feature","properties":{"P29_001":"22131","P29_002":"16","P29_003":"16002","P29_004":"16002","P29_005":"浜松修学舎中学校","P29_006":"向宿2-20-1","P29_007":4,"label":"浜松修学舎中"},"geometry":{"type":"Point","coordinates":[137.752869,34.705172]}},{"type":"Feature","properties":{"P29_001":"22131","P29_002":"16","P29_003":"16002","P29_004":"16002","P29_005":"曳馬中学校","P29_006":"曳馬4-2-15","P29_007":3,"label":"曳馬中"},"geometry":{"type":"Point","coordinates":[137.741785,34.729974]}},{"type":"Feature","properties":{"P29_001":"22131","P29_002":"16","P29_003":"16002","P29_004":"16002","P29_005":"開成中学校","P29_006":"高丘北1-15-20","P29_007":3,"label":"開成中"},"geometry":{"type":"Point","coordinates":[137.707675,34.760081]}},{"type":"Feature","properties":{"P29_001":"22131","P29_002":"16","P29_003":"16002","P29_004":"16002","P29_005":"江西中学校","P29_006":"神田町123","P29_007":3,"label":"江西中"},"geometry":{"type":"Point","coordinates":[137.726454,34.688228]}},{"type":"Feature","properties":{"P29_001":"22131","P29_002":"16","P29_003":"16002","P29_004":"16002","P29_005":"高台中学校","P29_006":"住吉5-19-1","P29_007":3,"label":"高台中"},"geometry":{"type":"Point","coordinates":[137.730452,34.735417]}},{"type":"Feature","properties":{"P29_001":"22131","P29_002":"16","P29_003":"16002","P29_004":"16002","P29_005":"佐鳴台中学校","P29_006":"佐鳴台3-32-1","P29_007":3,"label":"佐鳴台中"},"geometry":{"type":"Point","coordinates":[137.698622,34.706726]}},{"type":"Feature","properties":{"P29_001":"22131","P29_002":"16","P29_003":"16002","P29_004":"16002","P29_005":"西部中学校","P29_006":"鴨江2-17-1","P29_007":3,"label":"西部中"},"geometry":{"type":"Point","coordinates":[137.71501,34.702643]}},{"type":"Feature","properties":{"P29_001":"22131","P29_002":"16","P29_003":"16002","P29_004":"16002","P29_005":"静岡県西遠女子学園中学校","P29_006":"佐藤3-20-1","P29_007":4,"label":"静岡県西遠女子学園中"},"geometry":{"type":"Point","coordinates":[137.751765,34.714507]}},{"type":"Feature","properties":{"P29_001":"22131","P29_002":"16","P29_003":"16002","P29_004":"16002","P29_005":"静岡大学教育学部附属浜松中学校","P29_006":"布橋3-2-2","P29_007":1,"label":"静岡大学教育学部附属浜松中"},"geometry":{"type":"Point","coordinates":[137.712565,34.718947]}},{"type":"Feature","properties":{"P29_001":"22131","P29_002":"16","P29_003":"16002","P29_004":"16002","P29_005":"中部中学校","P29_006":"松城町108-1","P29_007":3,"label":"中部中"},"geometry":{"type":"Point","coordinates":[137.722982,34.713142]}},{"type":"Feature","properties":{"P29_001":"22131","P29_002":"16","P29_003":"16002","P29_004":"16002","P29_005":"南部中学校","P29_006":"龍禅寺町706","P29_007":3,"label":"南部中"},"geometry":{"type":"Point","coordinates":[137.738339,34.693719]}},{"type":"Feature","properties":{"P29_001":"22131","P29_002":"16","P29_003":"16002","P29_004":"16002","P29_005":"八幡中学校","P29_006":"野口町1533","P29_007":3,"label":"八幡中"},"geometry":{"type":"Point","coordinates":[137.741675,34.718975]}},{"type":"Feature","properties":{"P29_001":"22131","P29_002":"16","P29_003":"16002","P29_004":"16002","P29_005":"浜松開誠館中学校","P29_006":"松城町207-2","P29_007":4,"label":"浜松開誠館中"},"geometry":{"type":"Point","coordinates":[137.723287,34.710142]}},{"type":"Feature","properties":{"P29_001":"22131","P29_002":"16","P29_003":"16002","P29_004":"16002","P29_005":"浜松西高等学校中等部","P29_006":"西伊場町3-1","P29_007":2,"label":"浜松西高等学校中等部"},"geometry":{"type":"Point","coordinates":[137.709629,34.701357]}},{"type":"Feature","properties":{"P29_001":"22131","P29_002":"16","P29_003":"16002","P29_004":"16002","P29_005":"富塚中学校","P29_006":"富塚町460-1","P29_007":3,"label":"富塚中"},"geometry":{"type":"Point","coordinates":[137.703427,34.722502]}},{"type":"Feature","properties":{"P29_001":"22131","P29_002":"16","P29_003":"16002","P29_004":"16002","P29_005":"北部中学校","P29_006":"文丘町28-1","P29_007":3,"label":"北部中"},"geometry":{"type":"Point","coordinates":[137.714175,34.726807]}},{"type":"Feature","properties":{"P29_001":"22131","P29_002":"16","P29_003":"16002","P29_004":"16002","P29_005":"蜆塚中学校","P29_006":"蜆塚2-15-1","P29_007":3,"label":"蜆塚中"},"geometry":{"type":"Point","coordinates":[137.708704,34.714003]}},{"type":"Feature","properties":{"P29_001":"22131","P29_002":"16","P29_003":"99999","P29_004":"16002","P29_005":"浜松学芸中学校","P29_006":"下池川町34-3","P29_007":4,"label":"浜松学芸中"},"geometry":{"type":"Point","coordinates":[137.72821335084146,34.718719763644025]}},{"type":"Feature","properties":{"P29_001":"22132","P29_002":"16","P29_003":"16002","P29_004":"16002","P29_005":"笠井中学校","P29_006":"笠井町1055","P29_007":3,"label":"笠井中"},"geometry":{"type":"Point","coordinates":[137.792805,34.771333]}},{"type":"Feature","properties":{"P29_001":"22132","P29_002":"16","P29_003":"16002","P29_004":"16002","P29_005":"丸塚中学校","P29_006":"丸塚町1050","P29_007":3,"label":"丸塚中"},"geometry":{"type":"Point","coordinates":[137.754896,34.726141]}},{"type":"Feature","properties":{"P29_001":"22132","P29_002":"16","P29_003":"16002","P29_004":"16002","P29_005":"積志中学校","P29_006":"有玉北町1200","P29_007":3,"label":"積志中"},"geometry":{"type":"Point","coordinates":[137.757781,34.765359]}},{"type":"Feature","properties":{"P29_001":"22132","P29_002":"16","P29_003":"16002","P29_004":"16002","P29_005":"積志中学校萩原分校","P29_006":"有玉西町816","P29_007":3,"label":"積志中学校萩原分校"},"geometry":{"type":"Point","coordinates":[137.733648,34.756039]}},{"type":"Feature","properties":{"P29_001":"22132","P29_002":"16","P29_003":"16002","P29_004":"16002","P29_005":"中郡中学校","P29_006":"中郡町897","P29_007":3,"label":"中郡中"},"geometry":{"type":"Point","coordinates":[137.774974,34.769166]}},{"type":"Feature","properties":{"P29_001":"22132","P29_002":"16","P29_003":"16002","P29_004":"16002","P29_005":"天竜中学校","P29_006":"龍光町43","P29_007":3,"label":"天竜中"},"geometry":{"type":"Point","coordinates":[137.787308,34.721062]}},{"type":"Feature","properties":{"P29_001":"22132","P29_002":"16","P29_003":"16002","P29_004":"16002","P29_005":"浜松日体中学校","P29_006":"半田山3-30-1","P29_007":4,"label":"浜松日体中"},"geometry":{"type":"Point","coordinates":[137.740434,34.773571]}},{"type":"Feature","properties":{"P29_001":"22132","P29_002":"16","P29_003":"16002","P29_004":"16002","P29_005":"与進中学校","P29_006":"市野町1405-1","P29_007":3,"label":"与進中"},"geometry":{"type":"Point","coordinates":[137.777476,34.743391]}},{"type":"Feature","properties":{"P29_001":"22133","P29_002":"16","P29_003":"16002","P29_004":"16002","P29_005":"湖東中学校","P29_006":"佐浜町4540","P29_007":3,"label":"湖東中"},"geometry":{"type":"Point","coordinates":[137.657763,34.755941]}},{"type":"Feature","properties":{"P29_001":"22133","P29_002":"16","P29_003":"16002","P29_004":"16002","P29_005":"篠原中学校","P29_006":"篠原町20200-1","P29_007":3,"label":"篠原中"},"geometry":{"type":"Point","coordinates":[137.6575192764111,34.68210308630009]}},{"type":"Feature","properties":{"P29_001":"22133","P29_002":"16","P29_003":"16002","P29_004":"16002","P29_005":"庄内中学校","P29_006":"庄内町100","P29_007":3,"label":"庄内中"},"geometry":{"type":"Point","coordinates":[137.608686,34.755162]}},{"type":"Feature","properties":{"P29_001":"22133","P29_002":"16","P29_003":"16002","P29_004":"16002","P29_005":"神久呂中学校","P29_006":"大久保町6633","P29_007":3,"label":"神久呂中"},"geometry":{"type":"Point","coordinates":[137.665652,34.725056]}},{"type":"Feature","properties":{"P29_001":"22133","P29_002":"16","P29_003":"16002","P29_004":"16002","P29_005":"入野中学校","P29_006":"入野町17059","P29_007":3,"label":"入野中"},"geometry":{"type":"Point","coordinates":[137.676957,34.701753]}},{"type":"Feature","properties":{"P29_001":"22133","P29_002":"16","P29_003":"16002","P29_004":"16002","P29_005":"舞阪中学校","P29_006":"舞阪町舞阪4601","P29_007":3,"label":"舞阪中"},"geometry":{"type":"Point","coordinates":[137.61623,34.679439]}},{"type":"Feature","properties":{"P29_001":"22133","P29_002":"16","P29_003":"16002","P29_004":"16002","P29_005":"雄踏中学校","P29_006":"雄踏町宇布見9595","P29_007":3,"label":"雄踏中"},"geometry":{"type":"Point","coordinates":[137.63327,34.693804]}},{"type":"Feature","properties":{"P29_001":"22134","P29_002":"16","P29_003":"16002","P29_004":"16002","P29_005":"可美中学校","P29_006":"増楽町700","P29_007":3,"label":"可美中"},"geometry":{"type":"Point","coordinates":[137.691174,34.687209]}},{"type":"Feature","properties":{"P29_001":"22134","P29_002":"16","P29_003":"16002","P29_004":"16002","P29_005":"江南中学校","P29_006":"江之島町1266-3","P29_007":3,"label":"江南中"},"geometry":{"type":"Point","coordinates":[137.753508,34.663538]}},{"type":"Feature","properties":{"P29_001":"22134","P29_002":"16","P29_003":"16002","P29_004":"16002","P29_005":"新津中学校","P29_006":"新橋町748","P29_007":3,"label":"新津中"},"geometry":{"type":"Point","coordinates":[137.701345,34.683396]}},{"type":"Feature","properties":{"P29_001":"22134","P29_002":"16","P29_003":"16002","P29_004":"16002","P29_005":"東部中学校","P29_006":"飯田町1038","P29_007":3,"label":"東部中"},"geometry":{"type":"Point","coordinates":[137.773839,34.703089]}},{"type":"Feature","properties":{"P29_001":"22134","P29_002":"16","P29_003":"16002","P29_004":"16002","P29_005":"東陽中学校","P29_006":"西町700","P29_007":3,"label":"東陽中"},"geometry":{"type":"Point","coordinates":[137.777394,34.680787]}},{"type":"Feature","properties":{"P29_001":"22134","P29_002":"16","P29_003":"16002","P29_004":"16002","P29_005":"南陽中学校","P29_006":"芳川町80","P29_007":3,"label":"南陽中"},"geometry":{"type":"Point","coordinates":[137.765007,34.693729]}},{"type":"Feature","properties":{"P29_001":"22135","P29_002":"16","P29_003":"16002","P29_004":"16002","P29_005":"引佐南部中学校","P29_006":"引佐町横尾426","P29_007":3,"label":"引佐南部中"},"geometry":{"type":"Point","coordinates":[137.662565,34.834403]}},{"type":"Feature","properties":{"P29_001":"22135","P29_002":"16","P29_003":"16002","P29_004":"16002","P29_005":"引佐北部中学校","P29_006":"引佐町四方浄134-6","P29_007":3,"label":"引佐北部中"},"geometry":{"type":"Point","coordinates":[137.655780286804,34.89884222436337]}},{"type":"Feature","properties":{"P29_001":"22135","P29_002":"16","P29_003":"16002","P29_004":"16002","P29_005":"細江中学校","P29_006":"細江町気賀7300-1","P29_007":3,"label":"細江中"},"geometry":{"type":"Point","coordinates":[137.64718,34.807288]}},{"type":"Feature","properties":{"P29_001":"22135","P29_002":"16","P29_003":"16002","P29_004":"16002","P29_005":"三ケ日中学校","P29_006":"三ケ日町宇志1320-5","P29_007":3,"label":"三ケ日中"},"geometry":{"type":"Point","coordinates":[137.556125,34.798823]}},{"type":"Feature","properties":{"P29_001":"22135","P29_002":"16","P29_003":"16002","P29_004":"16002","P29_005":"三方原中学校","P29_006":"豊岡町196","P29_007":3,"label":"三方原中"},"geometry":{"type":"Point","coordinates":[137.719867,34.788966]}},{"type":"Feature","properties":{"P29_001":"22135","P29_002":"16","P29_003":"16002","P29_004":"16002","P29_005":"北星中学校","P29_006":"初生町1305","P29_007":3,"label":"北星中"},"geometry":{"type":"Point","coordinates":[137.714896,34.769497]}},{"type":"Feature","properties":{"P29_001":"22136","P29_002":"16","P29_003":"16002","P29_004":"16002","P29_005":"都田中学校","P29_006":"都田町5824-18","P29_007":3,"label":"都田中"},"geometry":{"type":"Point","coordinates":[137.720616,34.832711]}},{"type":"Feature","properties":{"P29_001":"22136","P29_002":"16","P29_003":"16002","P29_004":"16002","P29_005":"浜北北部中学校","P29_006":"於呂2961","P29_007":3,"label":"浜北北部中"},"geometry":{"type":"Point","coordinates":[137.800664,34.828105]}},{"type":"Feature","properties":{"P29_001":"22136","P29_002":"16","P29_003":"16002","P29_004":"16002","P29_005":"浜名中学校","P29_006":"小松467","P29_007":3,"label":"浜名中"},"geometry":{"type":"Point","coordinates":[137.777417,34.790747]}},{"type":"Feature","properties":{"P29_001":"22136","P29_002":"16","P29_003":"16002","P29_004":"16002","P29_005":"北浜中学校","P29_006":"西美薗279-2","P29_007":3,"label":"北浜中"},"geometry":{"type":"Point","coordinates":[137.79070104269164,34.796929284137576]}},{"type":"Feature","properties":{"P29_001":"22136","P29_002":"16","P29_003":"16002","P29_004":"16002","P29_005":"北浜東部中学校","P29_006":"上善地317","P29_007":3,"label":"北浜東部中"},"geometry":{"type":"Point","coordinates":[137.80858,34.799165]}},{"type":"Feature","properties":{"P29_001":"22136","P29_002":"16","P29_003":"16002","P29_004":"16002","P29_005":"麁玉中学校","P29_006":"宮口4847","P29_007":3,"label":"麁玉中"},"geometry":{"type":"Point","coordinates":[137.769139,34.834546]}},{"type":"Feature","properties":{"P29_001":"22136","P29_002":"16","P29_003":"99999","P29_004":"16002","P29_005":"聖隷クリストファー中学校","P29_006":"三方原町3453","P29_007":4,"label":"聖隷クリストファー中"},"geometry":{"type":"Point","coordinates":[137.6957741833643,34.79212707282929]}},{"type":"Feature","properties":{"P29_001":"22137","P29_002":"16","P29_003":"16002","P29_004":"16002","P29_005":"光が丘中学校","P29_006":"山東2701","P29_007":3,"label":"光が丘中"},"geometry":{"type":"Point","coordinates":[137.823272,34.875403]}},{"type":"Feature","properties":{"P29_001":"22137","P29_002":"16","P29_003":"16002","P29_004":"16002","P29_005":"佐久間中学校","P29_006":"佐久間町中部683-1","P29_007":3,"label":"佐久間中"},"geometry":{"type":"Point","coordinates":[137.7960301083738,35.079114630565286]}},{"type":"Feature","properties":{"P29_001":"22137","P29_002":"16","P29_003":"16002","P29_004":"16002","P29_005":"春野中学校","P29_006":"春野町気田380-2","P29_007":3,"label":"春野中"},"geometry":{"type":"Point","coordinates":[137.906428,35.00203]}},{"type":"Feature","properties":{"P29_001":"22137","P29_002":"16","P29_003":"16002","P29_004":"16002","P29_005":"水窪中学校","P29_006":"水窪町地頭方366","P29_007":3,"label":"水窪中"},"geometry":{"type":"Point","coordinates":[137.870491,35.154215]}},{"type":"Feature","properties":{"P29_001":"22137","P29_002":"16","P29_003":"16002","P29_004":"16002","P29_005":"清竜中学校","P29_006":"二俣町鹿島525","P29_007":3,"label":"清竜中"},"geometry":{"type":"Point","coordinates":[137.809246,34.849963]}}],"bbox":[137.5025613787662,34.604642,139.170764,35.428355]}