{"type":"FeatureCollection","features":[{"type":"Feature","geometry":{"type":"Point","coordinates":[140.1148839,35.6156494]},"properties":{"Name":"植草学園大学附属弁天こども園","Label":"植草学園大学附属弁天こども園","Owner":null,"Ownership":"私立","Proof":"Y","Shanai":"N","Kodomo":"Y","Type":"認可保育所","Add1":"千葉市中央区弁天2-7-1","Add2":null,"url":null,"TEL":"290-1789","FAX":null,"Full":"105","AgeS":null,"AgeE":null,"Open":"7:00","Close":"20:00","H24":"N","Memo":null,"Extra":null,"Temp":"N","Holiday":"N","Night":null,"Vacancy":null,"VacancyDate":null}},{"type":"Feature","geometry":{"type":"Point","coordinates":[140.1279533,35.6026995]},"properties":{"Name":"亥鼻保育所","Label":"亥鼻保育所","Owner":"千葉市","Ownership":"公立","Proof":"Y","Shanai":"N","Kodomo":"N","Type":"認可保育所","Add1":"千葉市中央区亥鼻2-5-6","Add2":null,"url":"htytp:///www","TEL":"222-2082","FAX":"222-2082","Full":"150","AgeS":"0","AgeE":"5","Open":"7:00","Close":"19:00","H24":"N","Memo":"この保育園マップの情報はテスト版です","Extra":"Y","Temp":"N","Holiday":"N","Night":"Y","Vacancy":"Y","VacancyDate":"2016/9/27"}},{"type":"Feature","geometry":{"type":"Point","coordinates":[140.1443398,35.5806263]},"properties":{"Name":"大森保育所","Label":"大森保育所","Owner":"千葉市","Ownership":"公立","Proof":"Y","Shanai":"N","Kodomo":"N","Type":"認可保育所","Add1":"千葉市中央区大森町268","Add2":null,"url":null,"TEL":null,"FAX":null,"Full":"100","AgeS":null,"AgeE":null,"Open":"7:00","Close":"19:00","H24":"N","Memo":null,"Extra":null,"Temp":"N","Holiday":"N","Night":null,"Vacancy":null,"VacancyDate":null}},{"type":"Feature","geometry":{"type":"Point","coordinates":[140.1457454,35.5608003]},"properties":{"Name":"生実保育所","Label":"生実保育所","Owner":"千葉市","Ownership":"公立","Proof":"Y","Shanai":"N","Kodomo":"N","Type":"認可保育所","Add1":"千葉市中央区生実町1940-1","Add2":null,"url":null,"TEL":"261-3719","FAX":null,"Full":"170","AgeS":null,"AgeE":null,"Open":"7:00","Close":"20:00","H24":"N","Memo":null,"Extra":null,"Temp":"N","Holiday":"N","Night":null,"Vacancy":null,"VacancyDate":null}},{"type":"Feature","geometry":{"type":"Point","coordinates":[140.1644272,35.5832983]},"properties":{"Name":"川戸保育所","Label":"川戸保育所","Owner":"千葉市","Ownership":"公立","Proof":"Y","Shanai":"N","Kodomo":"N","Type":"認可保育所","Add1":"千葉市中央区川戸町424-1","Add2":null,"url":null,"TEL":"265-0570","FAX":null,"Full":"90","AgeS":null,"AgeE":null,"Open":"7:00","Close":"19:00","H24":"N","Memo":null,"Extra":null,"Temp":"N","Holiday":"N","Night":null,"Vacancy":null,"VacancyDate":null}},{"type":"Feature","geometry":{"type":"Point","coordinates":[140.1408013,35.5783264]},"properties":{"Name":"白旗保育所","Label":"白旗保育所","Owner":"千葉市","Ownership":"公立","Proof":"Y","Shanai":"N","Kodomo":"N","Type":"認可保育所","Add1":"千葉市中央区白旗2-6-11","Add2":null,"url":null,"TEL":"261-2916","FAX":null,"Full":"160","AgeS":null,"AgeE":null,"Open":"7:00","Close":"19:00","H24":"N","Memo":null,"Extra":null,"Temp":"N","Holiday":"N","Night":null,"Vacancy":null,"VacancyDate":null}},{"type":"Feature","geometry":{"type":"Point","coordinates":[140.1142262,35.6070787]},"properties":{"Name":"新宿保育所","Label":"新宿保育所","Owner":"千葉市","Ownership":"公立","Proof":"Y","Shanai":"N","Kodomo":"N","Type":"認可保育所","Add1":"千葉市中央区新宿2-15-2","Add2":null,"url":null,"TEL":"241-8574","FAX":null,"Full":"120","AgeS":null,"AgeE":null,"Open":"7:00","Close":"20:00","H24":"N","Memo":null,"Extra":null,"Temp":"N","Holiday":"N","Night":null,"Vacancy":null,"VacancyDate":null}},{"type":"Feature","geometry":{"type":"Point","coordinates":[140.116882,35.6016075]},"properties":{"Name":"神明保育所","Label":"神明保育所","Owner":"千葉市","Ownership":"公立","Proof":"Y","Shanai":"N","Kodomo":"N","Type":"認可保育所","Add1":"千葉市中央区神明町27-6","Add2":null,"url":null,"TEL":"242-7349","FAX":null,"Full":"120","AgeS":null,"AgeE":null,"Open":"7:00","Close":"19:00","H24":"N","Memo":null,"Extra":null,"Temp":"N","Holiday":"N","Night":null,"Vacancy":null,"VacancyDate":null}},{"type":"Feature","geometry":{"type":"Point","coordinates":[140.1311081,35.5724932]},"properties":{"Name":"蘇我保育所","Label":"蘇我保育所","Owner":"千葉市","Ownership":"公立","Proof":"Y","Shanai":"N","Kodomo":"N","Type":"認可保育所","Add1":"千葉市中央区蘇我2-3-18","Add2":null,"url":null,"TEL":"263-4902","FAX":null,"Full":"70","AgeS":null,"AgeE":null,"Open":"7:00","Close":"19:00","H24":"N","Memo":null,"Extra":null,"Temp":"N","Holiday":"N","Night":null,"Vacancy":null,"VacancyDate":null}},{"type":"Feature","geometry":{"type":"Point","coordinates":[140.1295059,35.559414]},"properties":{"Name":"浜野保育所","Label":"浜野保育所","Owner":"千葉市","Ownership":"公立","Proof":"Y","Shanai":"N","Kodomo":"N","Type":"認可保育所","Add1":"千葉市中央区浜野町1346-5","Add2":null,"url":null,"TEL":"265-4165","FAX":null,"Full":"120","AgeS":null,"AgeE":null,"Open":"7:00","Close":"19:00","H24":"N","Memo":null,"Extra":null,"Temp":"N","Holiday":"N","Night":null,"Vacancy":null,"VacancyDate":null}},{"type":"Feature","geometry":{"type":"Point","coordinates":[140.114767,35.6187517]},"properties":{"Name":"弁天保育所","Label":"弁天保育所","Owner":"千葉市","Ownership":"公立","Proof":"Y","Shanai":"N","Kodomo":"N","Type":"認可保育所","Add1":"千葉市中央区弁天3-8-10","Add2":null,"url":null,"TEL":"254-4472","FAX":null,"Full":"90","AgeS":null,"AgeE":null,"Open":"7:00","Close":"19:00","H24":"N","Memo":null,"Extra":null,"Temp":"Y","Holiday":"N","Night":null,"Vacancy":null,"VacancyDate":null}},{"type":"Feature","geometry":{"type":"Point","coordinates":[140.1468625,35.5981387]},"properties":{"Name":"星久喜保育所","Label":"星久喜保育所","Owner":"千葉市","Ownership":"公立","Proof":"Y","Shanai":"N","Kodomo":"N","Type":"認可保育所","Add1":"千葉市中央区星久喜町1063-6","Add2":null,"url":null,"TEL":"261-0022","FAX":null,"Full":"90","AgeS":null,"AgeE":null,"Open":"7:00","Close":"19:00","H24":"N","Memo":null,"Extra":null,"Temp":"N","Holiday":"N","Night":null,"Vacancy":null,"VacancyDate":null}},{"type":"Feature","geometry":{"type":"Point","coordinates":[140.1418599,35.6121816]},"properties":{"Name":"都保育所","Label":"都保育所","Owner":"千葉市","Ownership":"公立","Proof":"Y","Shanai":"N","Kodomo":"N","Type":"認可保育所","Add1":"千葉市中央区都町2-26-5","Add2":null,"url":null,"TEL":"231-4846","FAX":null,"Full":"120","AgeS":null,"AgeE":null,"Open":"7:00","Close":"19:00","H24":"N","Memo":null,"Extra":null,"Temp":"N","Holiday":"N","Night":null,"Vacancy":null,"VacancyDate":null}},{"type":"Feature","geometry":{"type":"Point","coordinates":[140.1289196,35.5801815]},"properties":{"Name":"今井保育園","Label":"今井保育園","Owner":null,"Ownership":"私立","Proof":"Y","Shanai":"N","Kodomo":"N","Type":"認可保育所","Add1":"千葉市中央区今井2-12-7","Add2":null,"url":null,"TEL":"261-5627","FAX":null,"Full":"120","AgeS":null,"AgeE":null,"Open":"7:00","Close":"20:00","H24":"N","Memo":null,"Extra":null,"Temp":"Y","Holiday":"N","Night":null,"Vacancy":null,"VacancyDate":null}},{"type":"Feature","geometry":{"type":"Point","coordinates":[140.1091269,35.60289]},"properties":{"Name":"いろは保育園","Label":"いろは保育園","Owner":null,"Ownership":"私立","Proof":"Y","Shanai":"N","Kodomo":"N","Type":"認可保育所","Add1":"千葉市中央区問屋町１3-5","Add2":null,"url":null,"TEL":"241-2221","FAX":null,"Full":"40","AgeS":null,"AgeE":null,"Open":"7:00","Close":"20:00","H24":"N","Memo":null,"Extra":null,"Temp":"N","Holiday":"N","Night":null,"Vacancy":"Y","VacancyDate":null}},{"type":"Feature","geometry":{"type":"Point","coordinates":[140.1255304,35.6142337]},"properties":{"Name":"院内保育園","Label":"院内保育園","Owner":null,"Ownership":"私立","Proof":"Y","Shanai":"N","Kodomo":"N","Type":"認可保育所","Add1":"千葉市中央区院内2-5-6","Add2":null,"url":null,"TEL":"222-7234","FAX":null,"Full":"90","AgeS":null,"AgeE":null,"Open":"7:00","Close":"20:00","H24":"N","Memo":null,"Extra":null,"Temp":"N","Holiday":"N","Night":null,"Vacancy":null,"VacancyDate":null}},{"type":"Feature","geometry":{"type":"Point","coordinates":[140.1126734,35.6088004]},"properties":{"Name":"キートスチャイルドケア新田町","Label":"キートスチャイルドケア新田町","Owner":null,"Ownership":"私立","Proof":"Y","Shanai":"N","Kodomo":"N","Type":"認可保育所","Add1":"千葉市中央区新田町10-14","Add2":null,"url":null,"TEL":"216-5516","FAX":null,"Full":"59","AgeS":null,"AgeE":null,"Open":"7:00","Close":"20:00","H24":"N","Memo":"一時預かりは不定期利用のみ","Extra":null,"Temp":"Y","Holiday":"N","Night":null,"Vacancy":"Y","VacancyDate":null}},{"type":"Feature","geometry":{"type":"Point","coordinates":[140.1216011,35.5953444]},"properties":{"Name":"寒川保育園","Label":"寒川保育園","Owner":null,"Ownership":"私立","Proof":"Y","Shanai":"N","Kodomo":"N","Type":"認可保育所","Add1":"千葉市中央区寒川町2-120-1","Add2":null,"url":null,"TEL":"265-6115","FAX":null,"Full":"90","AgeS":null,"AgeE":null,"Open":"7:00","Close":"20:00","H24":"N","Memo":null,"Extra":null,"Temp":"Y","Holiday":"N","Night":null,"Vacancy":null,"VacancyDate":null}},{"type":"Feature","geometry":{"type":"Point","coordinates":[140.1469725,35.573788]},"properties":{"Name":"慈光保育園","Label":"慈光保育園","Owner":null,"Ownership":"私立","Proof":"Y","Shanai":"N","Kodomo":"N","Type":"認可保育所","Add1":"千葉市中央区大巌寺町457-5","Add2":null,"url":null,"TEL":"263-7965","FAX":null,"Full":"90","AgeS":null,"AgeE":null,"Open":"7:00","Close":"20:00","H24":"N","Memo":null,"Extra":null,"Temp":"Y","Holiday":"N","Night":null,"Vacancy":null,"VacancyDate":null}},{"type":"Feature","geometry":{"type":"Point","coordinates":[140.1082596,35.612119]},"properties":{"Name":"そらまめ保育園新千葉駅前園","Label":"そらまめ保育園新千葉駅前園","Owner":null,"Ownership":"私立","Proof":"Y","Shanai":"N","Kodomo":"N","Type":"認可保育所","Add1":"千葉市中央区登戸2-11-6","Add2":null,"url":null,"TEL":"238-5066","FAX":null,"Full":"40","AgeS":null,"AgeE":null,"Open":"7:00","Close":"20:00","H24":"N","Memo":null,"Extra":null,"Temp":"N","Holiday":"N","Night":null,"Vacancy":null,"VacancyDate":null}},{"type":"Feature","geometry":{"type":"Point","coordinates":[140.1309084,35.5903253]},"properties":{"Name":"千葉寺保育園","Label":"千葉寺保育園","Owner":null,"Ownership":"私立","Proof":"Y","Shanai":"N","Kodomo":"N","Type":"認可保育所","Add1":"千葉市中央区末広4-17-3","Add2":null,"url":null,"TEL":"264-7952","FAX":null,"Full":"159","AgeS":null,"AgeE":null,"Open":"7:00","Close":"20:00","H24":"N","Memo":null,"Extra":null,"Temp":"Y","Holiday":"Y","Night":null,"Vacancy":"Y","VacancyDate":null}},{"type":"Feature","geometry":{"type":"Point","coordinates":[140.1027598,35.6052669]},"properties":{"Name":"千葉みなとのぞみ保育園","Label":"千葉みなとのぞみ保育園","Owner":null,"Ownership":"私立","Proof":"Y","Shanai":"N","Kodomo":"N","Type":"認可保育所","Add1":"千葉市中央区中央港1-22-7 2F","Add2":null,"url":null,"TEL":"246-7827","FAX":null,"Full":"30","AgeS":null,"AgeE":null,"Open":"7:00","Close":"20:00","H24":"N","Memo":null,"Extra":null,"Temp":"N","Holiday":"N","Night":null,"Vacancy":null,"VacancyDate":null}},{"type":"Feature","geometry":{"type":"Point","coordinates":[140.130842,35.5565199]},"properties":{"Name":"畠山学園附属はまの","Label":"畠山学園附属はまの","Owner":null,"Ownership":"私立","Proof":"Y","Shanai":"N","Kodomo":"N","Type":"認可保育所","Add1":"千葉市中央区浜野町663-1","Add2":null,"url":null,"TEL":"265-5771","FAX":null,"Full":"59","AgeS":null,"AgeE":null,"Open":"7:00","Close":"20:00","H24":"N","Memo":null,"Extra":null,"Temp":"N","Holiday":"N","Night":null,"Vacancy":null,"VacancyDate":null}},{"type":"Feature","geometry":{"type":"Point","coordinates":[140.1008716,35.6077635]},"properties":{"Name":"はまかぜ保育園","Label":"はまかぜ保育園","Owner":null,"Ownership":"私立","Proof":"Y","Shanai":"N","Kodomo":"N","Type":"認可保育所","Add1":"千葉市中央区中央港1-24-14 1F","Add2":null,"url":null,"TEL":"238-1191","FAX":null,"Full":"40","AgeS":null,"AgeE":null,"Open":"7:00","Close":"20:00","H24":"N","Memo":null,"Extra":null,"Temp":"N","Holiday":"N","Night":null,"Vacancy":null,"VacancyDate":null}},{"type":"Feature","geometry":{"type":"Point","coordinates":[140.1161122,35.6070455]},"properties":{"Name":"ひなたぼっこ保育園","Label":"ひなたぼっこ保育園","Owner":null,"Ownership":"私立","Proof":"Y","Shanai":"N","Kodomo":"N","Type":"認可保育所","Add1":"千葉市中央区新宿2-5-13 2F","Add2":null,"url":null,"TEL":"242-6870","FAX":null,"Full":"39","AgeS":null,"AgeE":null,"Open":"7:00","Close":"20:00","H24":"N","Memo":null,"Extra":null,"Temp":"N","Holiday":"N","Night":null,"Vacancy":null,"VacancyDate":null}},{"type":"Feature","geometry":{"type":"Point","coordinates":[140.1135484,35.6081284]},"properties":{"Name":"ピラミッドメソッド千葉保育園","Label":"ピラミッドメソッド千葉保育園","Owner":null,"Ownership":"私立","Proof":"Y","Shanai":"N","Kodomo":"N","Type":"認可保育所","Add1":"千葉市中央区新田町7-16","Add2":null,"url":null,"TEL":"239-6008","FAX":null,"Full":"59","AgeS":null,"AgeE":null,"Open":"7:00","Close":"20:00","H24":"N","Memo":null,"Extra":null,"Temp":"N","Holiday":"N","Night":null,"Vacancy":null,"VacancyDate":null}},{"type":"Feature","geometry":{"type":"Point","coordinates":[140.1239636,35.6168498]},"properties":{"Name":"ふぇりーちぇほいくえん","Label":"ふぇりーちぇほいくえん","Owner":null,"Ownership":"私立","Proof":"Y","Shanai":"N","Kodomo":"N","Type":"認可保育所","Add1":"千葉市中央区祐光2-7-8","Add2":null,"url":null,"TEL":"221-7755","FAX":null,"Full":"59","AgeS":null,"AgeE":null,"Open":"7:00","Close":"20:00","H24":"N","Memo":null,"Extra":null,"Temp":"N","Holiday":"N","Night":null,"Vacancy":null,"VacancyDate":null}},{"type":"Feature","geometry":{"type":"Point","coordinates":[140.1207845,35.6006245]},"properties":{"Name":"本千葉エンゼルホーム保育園","Label":"本千葉エンゼルホーム保育園","Owner":null,"Ownership":"私立","Proof":"Y","Shanai":"N","Kodomo":"N","Type":"認可保育所","Add1":"千葉市中央区港町16-37","Add2":null,"url":null,"TEL":"215-8886","FAX":null,"Full":"40","AgeS":null,"AgeE":null,"Open":"7:00","Close":"20:00","H24":"N","Memo":null,"Extra":null,"Temp":"N","Holiday":"N","Night":null,"Vacancy":"Y","VacancyDate":null}},{"type":"Feature","geometry":{"type":"Point","coordinates":[140.1547665,35.5858621]},"properties":{"Name":"松ヶ丘保育園","Label":"松ヶ丘保育園","Owner":null,"Ownership":"公立","Proof":"Y","Shanai":"N","Kodomo":"N","Type":"認可保育所","Add1":"千葉市中央区松ケ丘町563-1","Add2":null,"url":null,"TEL":"265-7568","FAX":null,"Full":"90","AgeS":null,"AgeE":null,"Open":"7:00","Close":"20:00","H24":"N","Memo":null,"Extra":null,"Temp":"N","Holiday":"N","Night":null,"Vacancy":null,"VacancyDate":null}},{"type":"Feature","geometry":{"type":"Point","coordinates":[140.1027854,35.6068166]},"properties":{"Name":"みなと公園のぞみ保育園","Label":"みなと公園のぞみ保育園","Owner":null,"Ownership":"私立","Proof":"Y","Shanai":"N","Kodomo":"N","Type":"認可保育所","Add1":"千葉市中央区中央港1-1-1","Add2":null,"url":null,"TEL":"246-7806","FAX":null,"Full":"90","AgeS":null,"AgeE":null,"Open":"7:00","Close":"20:00","H24":"N","Memo":null,"Extra":null,"Temp":"Y","Holiday":"N","Night":null,"Vacancy":"Y","VacancyDate":null}},{"type":"Feature","geometry":{"type":"Point","coordinates":[140.1318588,35.5517787]},"properties":{"Name":"明徳浜野駅保育園","Label":"明徳浜野駅保育園","Owner":null,"Ownership":"私立","Proof":"Y","Shanai":"N","Kodomo":"N","Type":"認可保育所","Add1":"千葉市中央区村田町668-2","Add2":null,"url":null,"TEL":"497-6326","FAX":null,"Full":"36","AgeS":null,"AgeE":null,"Open":"7:00","Close":"20:00","H24":"N","Memo":null,"Extra":null,"Temp":"N","Holiday":"N","Night":null,"Vacancy":null,"VacancyDate":null}},{"type":"Feature","geometry":{"type":"Point","coordinates":[140.110257,35.607556]},"properties":{"Name":"ルーチェ保育園千葉新田町","Label":"ルーチェ保育園千葉新田町","Owner":null,"Ownership":"私立","Proof":"Y","Shanai":"N","Kodomo":"N","Type":"認可保育所","Add1":"千葉市中央区新田町33-1 1F","Add2":null,"url":null,"TEL":"306-7655","FAX":null,"Full":"59","AgeS":null,"AgeE":null,"Open":"7:00","Close":"20:00","H24":"N","Memo":null,"Extra":null,"Temp":"N","Holiday":"N","Night":null,"Vacancy":"Y","VacancyDate":null}},{"type":"Feature","geometry":{"type":"Point","coordinates":[140.1392124,35.5693992]},"properties":{"Name":"ローゼンそが保育園","Label":"ローゼンそが保育園","Owner":null,"Ownership":"私立","Proof":"Y","Shanai":"N","Kodomo":"N","Type":"認可保育所","Add1":"千葉市中央区蘇我5-44-2","Add2":null,"url":null,"TEL":"308-4110","FAX":null,"Full":"90","AgeS":null,"AgeE":null,"Open":"7:00","Close":"20:00","H24":"N","Memo":null,"Extra":null,"Temp":"Y","Holiday":"N","Night":null,"Vacancy":null,"VacancyDate":null}},{"type":"Feature","geometry":{"type":"Point","coordinates":[140.1351552,35.5934585]},"properties":{"Name":"青葉の森保育館","Label":"青葉の森保育館","Owner":null,"Ownership":"私立","Proof":"Y","Shanai":"N","Kodomo":"N","Type":"認可保育所","Add1":"千葉市中央区千葉寺町1210-7","Add2":null,"url":null,"TEL":"208-7219","FAX":null,"Full":"15","AgeS":null,"AgeE":null,"Open":"7:00","Close":"19:00","H24":"N","Memo":null,"Extra":null,"Temp":"N","Holiday":"N","Night":null,"Vacancy":null,"VacancyDate":null}},{"type":"Feature","geometry":{"type":"Point","coordinates":[140.1158596,35.6060456]},"properties":{"Name":"おひさまのおうち","Label":"おひさまのおうち","Owner":null,"Ownership":"私立","Proof":"Y","Shanai":"N","Kodomo":"N","Type":"認可保育所","Add1":"千葉市中央区新宿2-11-6","Add2":null,"url":null,"TEL":"302-7188","FAX":null,"Full":"13","AgeS":null,"AgeE":null,"Open":"7:00","Close":"20:00","H24":"N","Memo":null,"Extra":null,"Temp":"N","Holiday":"N","Night":null,"Vacancy":null,"VacancyDate":null}},{"type":"Feature","geometry":{"type":"Point","coordinates":[140.1065008,35.6227337]},"properties":{"Name":"キッズパティオ西千葉園","Label":"キッズパティオ西千葉園","Owner":null,"Ownership":"私立","Proof":"Y","Shanai":"N","Kodomo":"N","Type":"認可保育所","Add1":"千葉市中央区松波2-18-11","Add2":null,"url":null,"TEL":"256-6378","FAX":null,"Full":"12","AgeS":null,"AgeE":null,"Open":"7:00","Close":"20:00","H24":"N","Memo":null,"Extra":null,"Temp":"N","Holiday":"N","Night":null,"Vacancy":null,"VacancyDate":null}},{"type":"Feature","geometry":{"type":"Point","coordinates":[140.1262111,35.6118313]},"properties":{"Name":"キッズルームチャコ千葉園","Label":"キッズルームチャコ千葉園","Owner":null,"Ownership":"私立","Proof":"Y","Shanai":"N","Kodomo":"N","Type":"認可保育所","Add1":"千葉市中央区院内2-17-25","Add2":null,"url":null,"TEL":"225-6503","FAX":null,"Full":"18","AgeS":null,"AgeE":null,"Open":"7:00","Close":"翌7：00","H24":"Y","Memo":null,"Extra":null,"Temp":"Y","Holiday":"Y","Night":null,"Vacancy":null,"VacancyDate":null}},{"type":"Feature","geometry":{"type":"Point","coordinates":[140.1115844,35.6120526]},"properties":{"Name":"そらまめ千葉西口駅前園","Label":"そらまめ千葉西口駅前園","Owner":null,"Ownership":"私立","Proof":"Y","Shanai":"N","Kodomo":"N","Type":"認可保育所","Add1":"千葉市中央区新千葉1-7-9","Add2":null,"url":null,"TEL":"306-3627","FAX":null,"Full":"19","AgeS":null,"AgeE":null,"Open":"7:00","Close":"21:00","H24":"N","Memo":null,"Extra":null,"Temp":"N","Holiday":"N","Night":null,"Vacancy":null,"VacancyDate":null}},{"type":"Feature","geometry":{"type":"Point","coordinates":[140.1083265,35.6100221]},"properties":{"Name":"千葉わくわく園","Label":"千葉わくわく園","Owner":null,"Ownership":"私立","Proof":"Y","Shanai":"N","Kodomo":"N","Type":"認可保育所","Add1":"千葉市中央区登戸1－11－18","Add2":null,"url":null,"TEL":"242-7737","FAX":null,"Full":"19","AgeS":null,"AgeE":null,"Open":"7:00","Close":"20:00","H24":"N","Memo":null,"Extra":null,"Temp":"Y","Holiday":"N","Night":null,"Vacancy":null,"VacancyDate":null}},{"type":"Feature","geometry":{"type":"Point","coordinates":[140.107587,35.6192622]},"properties":{"Name":"ナーサリー・アーク","Label":"ナーサリー・アーク","Owner":null,"Ownership":"私立","Proof":"Y","Shanai":"N","Kodomo":"N","Type":"認可保育所","Add1":"千葉市中央区松波1-19-8","Add2":null,"url":null,"TEL":"441-5500","FAX":null,"Full":"12","AgeS":null,"AgeE":null,"Open":"7:00","Close":"20:00","H24":"N","Memo":null,"Extra":null,"Temp":"N","Holiday":"N","Night":null,"Vacancy":null,"VacancyDate":null}},{"type":"Feature","geometry":{"type":"Point","coordinates":[140.1108947,35.6239783]},"properties":{"Name":"西千葉たんぽぽ保育室","Label":"西千葉たんぽぽ保育室","Owner":null,"Ownership":"私立","Proof":"Y","Shanai":"N","Kodomo":"N","Type":"認可保育所","Add1":"千葉市中央区松波4-22-10","Add2":null,"url":null,"TEL":"307-3418","FAX":null,"Full":"12","AgeS":null,"AgeE":null,"Open":"7:00","Close":"20:00","H24":"N","Memo":null,"Extra":null,"Temp":"N","Holiday":"N","Night":null,"Vacancy":null,"VacancyDate":null}},{"type":"Feature","geometry":{"type":"Point","coordinates":[140.1187536,35.6080094]},"properties":{"Name":"ニチイキッズ千葉中央第一","Label":"ニチイキッズ千葉中央第一","Owner":null,"Ownership":"私立","Proof":"Y","Shanai":"N","Kodomo":"N","Type":"認可保育所","Add1":"千葉市中央区本千葉町1-1","Add2":null,"url":null,"TEL":"202-2188","FAX":null,"Full":"19","AgeS":null,"AgeE":null,"Open":"7:00","Close":"20:00","H24":"N","Memo":null,"Extra":null,"Temp":"N","Holiday":"N","Night":null,"Vacancy":null,"VacancyDate":null}},{"type":"Feature","geometry":{"type":"Point","coordinates":[140.1187536,35.6080094]},"properties":{"Name":"ニチイキッズ千葉中央第二","Label":"ニチイキッズ千葉中央第二","Owner":null,"Ownership":"私立","Proof":"Y","Shanai":"N","Kodomo":"N","Type":"認可保育所","Add1":"千葉市中央区本千葉町1-1","Add2":null,"url":null,"TEL":"202-2215","FAX":null,"Full":"19","AgeS":null,"AgeE":null,"Open":"7:00","Close":"20:00","H24":"N","Memo":null,"Extra":null,"Temp":"N","Holiday":"N","Night":null,"Vacancy":null,"VacancyDate":null}},{"type":"Feature","geometry":{"type":"Point","coordinates":[140.1185956,35.6052099]},"properties":{"Name":"ぷち・いろは保育園","Label":"ぷち・いろは保育園","Owner":null,"Ownership":"私立","Proof":"Y","Shanai":"N","Kodomo":"N","Type":"認可保育所","Add1":"千葉市中央区神明町201-2","Add2":null,"url":null,"TEL":"306-4700","FAX":null,"Full":"15","AgeS":null,"AgeE":null,"Open":"7:00","Close":"20:00","H24":"N","Memo":null,"Extra":null,"Temp":"N","Holiday":"N","Night":null,"Vacancy":null,"VacancyDate":null}},{"type":"Feature","geometry":{"type":"Point","coordinates":[140.1172985,35.6045932]},"properties":{"Name":"星のおうち千葉中央","Label":"星のおうち千葉中央","Owner":null,"Ownership":"私立","Proof":"Y","Shanai":"N","Kodomo":"N","Type":"認可保育所","Add1":"千葉市中央区神明町202-5","Add2":null,"url":null,"TEL":"306-7013","FAX":null,"Full":"15","AgeS":null,"AgeE":null,"Open":"7:00","Close":"19:00","H24":"N","Memo":null,"Extra":null,"Temp":"N","Holiday":"N","Night":null,"Vacancy":null,"VacancyDate":null}},{"type":"Feature","geometry":{"type":"Point","coordinates":[140.1101345,35.6121969]},"properties":{"Name":"ほしのこキッズルーム","Label":"ほしのこキッズルーム","Owner":null,"Ownership":"私立","Proof":"Y","Shanai":"N","Kodomo":"N","Type":"認可保育所","Add1":"千葉市中央区新千葉2-14-6","Add2":null,"url":null,"TEL":"306-9410","FAX":null,"Full":"19","AgeS":null,"AgeE":null,"Open":"7:00","Close":"19:30","H24":"N","Memo":null,"Extra":null,"Temp":"N","Holiday":"N","Night":null,"Vacancy":null,"VacancyDate":null}},{"type":"Feature","geometry":{"type":"Point","coordinates":[140.1216493,35.6232875]},"properties":{"Name":"千葉医療センターつばき保育園（地域枠）","Label":"千葉医療センターつばき保育園（地域枠）","Owner":null,"Ownership":"私立","Proof":"Y","Shanai":"Y","Kodomo":"N","Type":"認可保育所","Add1":"千葉市中央区椿森4-1-2","Add2":null,"url":null,"TEL":"207-4176","FAX":null,"Full":"10","AgeS":null,"AgeE":null,"Open":"7:30","Close":"19:00","H24":"N","Memo":null,"Extra":null,"Temp":"N","Holiday":"N","Night":null,"Vacancy":null,"VacancyDate":null}},{"type":"Feature","geometry":{"type":"Point","coordinates":[140.1204387,35.6902971]},"properties":{"Name":"こてはし台保育所","Label":"こてはし台保育所","Owner":"千葉市","Ownership":"公立","Proof":"Y","Shanai":"N","Kodomo":"N","Type":"認可保育所","Add1":"千葉市花見川区こてはし台5-12","Add2":null,"url":null,"TEL":"257-4512","FAX":null,"Full":"150","AgeS":null,"AgeE":null,"Open":"7:00","Close":"19:00","H24":"N","Memo":null,"Extra":null,"Temp":"N","Holiday":"N","Night":null,"Vacancy":"Y","VacancyDate":null}},{"type":"Feature","geometry":{"type":"Point","coordinates":[140.092698,35.6664852]},"properties":{"Name":"さつきが丘第一保育所","Label":"さつきが丘第一保育所","Owner":"千葉市","Ownership":"公立","Proof":"Y","Shanai":"N","Kodomo":"N","Type":"認可保育所","Add1":"千葉市花見川区さつきが丘2-32-1","Add2":null,"url":null,"TEL":"259-7567","FAX":null,"Full":"150","AgeS":null,"AgeE":null,"Open":"7:00","Close":"19:00","H24":"N","Memo":null,"Extra":null,"Temp":"N","Holiday":"N","Night":null,"Vacancy":"Y","VacancyDate":null}},{"type":"Feature","geometry":{"type":"Point","coordinates":[140.0963422,35.6652049]},"properties":{"Name":"さつきが丘第二保育所","Label":"さつきが丘第二保育所","Owner":"千葉市","Ownership":"公立","Proof":"Y","Shanai":"N","Kodomo":"N","Type":"認可保育所","Add1":"千葉市花見川区さつきが丘1-32-1","Add2":null,"url":null,"TEL":"250-7121","FAX":null,"Full":"90","AgeS":null,"AgeE":null,"Open":"7:00","Close":"19:00","H24":"N","Memo":null,"Extra":null,"Temp":"N","Holiday":"N","Night":null,"Vacancy":null,"VacancyDate":null}},{"type":"Feature","geometry":{"type":"Point","coordinates":[140.0722052,35.6746536]},"properties":{"Name":"長作保育所","Label":"長作保育所","Owner":"千葉市","Ownership":"公立","Proof":"Y","Shanai":"N","Kodomo":"N","Type":"認可保育所","Add1":"千葉市花見川区長作町739-3","Add2":null,"url":null,"TEL":"259-6541","FAX":null,"Full":"60","AgeS":null,"AgeE":null,"Open":"7:00","Close":"19:00","H24":"N","Memo":null,"Extra":null,"Temp":"N","Holiday":"N","Night":null,"Vacancy":null,"VacancyDate":null}},{"type":"Feature","geometry":{"type":"Point","coordinates":[140.0873767,35.6518535]},"properties":{"Name":"西小中台保育所","Label":"西小中台保育所","Owner":"千葉市","Ownership":"公立","Proof":"Y","Shanai":"N","Kodomo":"N","Type":"認可保育所","Add1":"千葉市花見川区西小中台5-20","Add2":null,"url":null,"TEL":"271-1955","FAX":null,"Full":"100","AgeS":null,"AgeE":null,"Open":"7:00","Close":"19:00","H24":"N","Memo":null,"Extra":null,"Temp":"N","Holiday":"N","Night":null,"Vacancy":null,"VacancyDate":null}},{"type":"Feature","geometry":{"type":"Point","coordinates":[140.0953608,35.6907412]},"properties":{"Name":"花見川第一保育所","Label":"花見川第一保育所","Owner":"千葉市","Ownership":"公立","Proof":"Y","Shanai":"N","Kodomo":"N","Type":"認可保育所","Add1":"千葉市花見川区花見川3-23-101","Add2":null,"url":null,"TEL":"259-1280","FAX":null,"Full":"120","AgeS":null,"AgeE":null,"Open":"7:00","Close":"19:00","H24":"N","Memo":null,"Extra":null,"Temp":"N","Holiday":"N","Night":null,"Vacancy":"Y","VacancyDate":null}},{"type":"Feature","geometry":{"type":"Point","coordinates":[140.0940333,35.6876637]},"properties":{"Name":"花見川第二保育所","Label":"花見川第二保育所","Owner":"千葉市","Ownership":"公立","Proof":"Y","Shanai":"N","Kodomo":"N","Type":"認可保育所","Add1":"千葉市花見川区花見川2-41-101","Add2":null,"url":null,"TEL":"259-5364","FAX":null,"Full":"155","AgeS":null,"AgeE":null,"Open":"7:00","Close":"20:00","H24":"N","Memo":null,"Extra":null,"Temp":"N","Holiday":"N","Night":null,"Vacancy":null,"VacancyDate":null}},{"type":"Feature","geometry":{"type":"Point","coordinates":[140.0990741,35.695513]},"properties":{"Name":"花見川第三保育所","Label":"花見川第三保育所","Owner":"千葉市","Ownership":"公立","Proof":"Y","Shanai":"N","Kodomo":"N","Type":"認可保育所","Add1":"千葉市花見川区花見川4-2","Add2":null,"url":null,"TEL":"259-3542","FAX":null,"Full":"100","AgeS":null,"AgeE":null,"Open":"7:00","Close":"19:00","H24":"N","Memo":null,"Extra":null,"Temp":"Y","Holiday":"N","Night":null,"Vacancy":null,"VacancyDate":null}},{"type":"Feature","geometry":{"type":"Point","coordinates":[140.0533102,35.6550475]},"properties":{"Name":"幕張第一保育所","Label":"幕張第一保育所","Owner":"千葉市","Ownership":"公立","Proof":"Y","Shanai":"N","Kodomo":"N","Type":"認可保育所","Add1":"千葉市花見川区幕張町5-417-260","Add2":null,"url":null,"TEL":"273-8763","FAX":null,"Full":"85","AgeS":null,"AgeE":null,"Open":"7:00","Close":"19:00","H24":"N","Memo":null,"Extra":null,"Temp":"N","Holiday":"N","Night":null,"Vacancy":null,"VacancyDate":null}},{"type":"Feature","geometry":{"type":"Point","coordinates":[140.0577874,35.6616162]},"properties":{"Name":"幕張第二保育所","Label":"幕張第二保育所","Owner":"千葉市","Ownership":"公立","Proof":"Y","Shanai":"N","Kodomo":"N","Type":"認可保育所","Add1":"千葉市花見川区幕張町4-636","Add2":null,"url":null,"TEL":"273-7118","FAX":null,"Full":"130","AgeS":null,"AgeE":null,"Open":"7:00","Close":"20:00","H24":"N","Memo":null,"Extra":null,"Temp":"N","Holiday":"N","Night":null,"Vacancy":null,"VacancyDate":null}},{"type":"Feature","geometry":{"type":"Point","coordinates":[140.0482078,35.6565555]},"properties":{"Name":"幕張第三保育所","Label":"幕張第三保育所","Owner":"千葉市","Ownership":"公立","Proof":"Y","Shanai":"N","Kodomo":"N","Type":"認可保育所","Add1":"千葉市花見川区幕張町3-7730-5","Add2":null,"url":null,"TEL":"272-5490","FAX":null,"Full":"150","AgeS":null,"AgeE":null,"Open":"7:00","Close":"19:00","H24":"N","Memo":null,"Extra":null,"Temp":"N","Holiday":"N","Night":null,"Vacancy":null,"VacancyDate":null}},{"type":"Feature","geometry":{"type":"Point","coordinates":[140.0559321,35.6580222]},"properties":{"Name":"あい・あい保育園 幕張園","Label":"あい・あい保育園 幕張園","Owner":null,"Ownership":"私立","Proof":"Y","Shanai":"N","Kodomo":"N","Type":"認可保育所","Add1":"千葉市花見川区幕張町5-150-15","Add2":null,"url":null,"TEL":"296-7098","FAX":null,"Full":"29","AgeS":null,"AgeE":null,"Open":"7:00","Close":"20:00","H24":"N","Memo":"一時預かりは不定期利用のみ","Extra":null,"Temp":"Y","Holiday":"N","Night":null,"Vacancy":"Y","VacancyDate":null}},{"type":"Feature","geometry":{"type":"Point","coordinates":[140.0447409,35.6762253]},"properties":{"Name":"泉保育園","Label":"泉保育園","Owner":null,"Ownership":"私立","Proof":"Y","Shanai":"N","Kodomo":"N","Type":"認可保育所","Add1":"千葉市花見川区幕張本郷6-21-20","Add2":null,"url":null,"TEL":"441-3551","FAX":null,"Full":"60","AgeS":null,"AgeE":null,"Open":"7:00","Close":"20:00","H24":"N","Memo":null,"Extra":null,"Temp":"N","Holiday":"N","Night":null,"Vacancy":null,"VacancyDate":null}},{"type":"Feature","geometry":{"type":"Point","coordinates":[140.0793719,35.6517285]},"properties":{"Name":"新検見川すきっぷ保育園","Label":"新検見川すきっぷ保育園","Owner":null,"Ownership":"私立","Proof":"Y","Shanai":"N","Kodomo":"N","Type":"認可保育所","Add1":"千葉市花見川区花園町1573-1","Add2":null,"url":null,"TEL":"306-7245","FAX":null,"Full":"40","AgeS":null,"AgeE":null,"Open":"7:00","Close":"20:00","H24":"N","Memo":null,"Extra":null,"Temp":"N","Holiday":"N","Night":null,"Vacancy":null,"VacancyDate":null}},{"type":"Feature","geometry":{"type":"Point","coordinates":[140.0484909,35.66556]},"properties":{"Name":"スクルドエンジェル保育園幕張園","Label":"スクルドエンジェル保育園幕張園","Owner":null,"Ownership":"私立","Proof":"Y","Shanai":"N","Kodomo":"N","Type":"認可保育所","Add1":"千葉市花見川区幕張町2-1411","Add2":null,"url":null,"TEL":"306-3783","FAX":null,"Full":"27","AgeS":null,"AgeE":null,"Open":"7:00","Close":"20:00","H24":"N","Memo":null,"Extra":null,"Temp":"N","Holiday":"N","Night":null,"Vacancy":null,"VacancyDate":null}},{"type":"Feature","geometry":{"type":"Point","coordinates":[140.0694924,35.646268]},"properties":{"Name":"ちどり保育園","Label":"ちどり保育園","Owner":null,"Ownership":"私立","Proof":"Y","Shanai":"N","Kodomo":"N","Type":"認可保育所","Add1":"千葉市花見川区検見川町3-331-4","Add2":null,"url":null,"TEL":"271-7828","FAX":null,"Full":"120","AgeS":null,"AgeE":null,"Open":"7:00","Close":"20:00","H24":"N","Memo":null,"Extra":null,"Temp":"N","Holiday":"N","Night":null,"Vacancy":null,"VacancyDate":null}},{"type":"Feature","geometry":{"type":"Point","coordinates":[140.0916307,35.6904995]},"properties":{"Name":"ぴょんぴょん保育園","Label":"ぴょんぴょん保育園","Owner":null,"Ownership":"私立","Proof":"Y","Shanai":"N","Kodomo":"N","Type":"認可保育所","Add1":"千葉市花見川区作新台1-6-11","Add2":null,"url":null,"TEL":"257-6730","FAX":null,"Full":"20","AgeS":null,"AgeE":null,"Open":"7:00","Close":"20:00","H24":"N","Memo":null,"Extra":null,"Temp":"N","Holiday":"N","Night":null,"Vacancy":"Y","VacancyDate":null}},{"type":"Feature","geometry":{"type":"Point","coordinates":[140.0379389,35.6718145]},"properties":{"Name":"ほのぼのたんぽぽ保育園","Label":"ほのぼのたんぽぽ保育園","Owner":null,"Ownership":"私立","Proof":"Y","Shanai":"N","Kodomo":"N","Type":"認可保育所","Add1":"千葉市花見川区幕張本郷1-20-9","Add2":null,"url":null,"TEL":"271-4152","FAX":null,"Full":"59","AgeS":null,"AgeE":null,"Open":"7:00","Close":"20:00","H24":"N","Memo":null,"Extra":null,"Temp":"N","Holiday":"N","Night":null,"Vacancy":null,"VacancyDate":null}},{"type":"Feature","geometry":{"type":"Point","coordinates":[140.0557238,35.6604191]},"properties":{"Name":"幕張いもっこ保育園","Label":"幕張いもっこ保育園","Owner":null,"Ownership":"私立","Proof":"Y","Shanai":"N","Kodomo":"N","Type":"認可保育所","Add1":"千葉市花見川区幕張町4-608-1","Add2":null,"url":null,"TEL":"299-8116","FAX":null,"Full":"135","AgeS":null,"AgeE":null,"Open":"7:00","Close":"20:00","H24":"N","Memo":null,"Extra":null,"Temp":"N","Holiday":"N","Night":null,"Vacancy":null,"VacancyDate":null}},{"type":"Feature","geometry":{"type":"Point","coordinates":[140.0461381,35.6735173]},"properties":{"Name":"幕張本郷きらきら保育園","Label":"幕張本郷きらきら保育園","Owner":null,"Ownership":"私立","Proof":"Y","Shanai":"N","Kodomo":"N","Type":"認可保育所","Add1":"千葉市花見川区幕張本郷5-8-8","Add2":null,"url":null,"TEL":"350-0415","FAX":null,"Full":"59","AgeS":null,"AgeE":null,"Open":"7:00","Close":"20:00","H24":"N","Memo":null,"Extra":null,"Temp":"N","Holiday":"N","Night":null,"Vacancy":null,"VacancyDate":null}},{"type":"Feature","geometry":{"type":"Point","coordinates":[140.04333,35.674156]},"properties":{"Name":"幕張本郷すきっぷ保育園","Label":"幕張本郷すきっぷ保育園","Owner":null,"Ownership":"私立","Proof":"Y","Shanai":"N","Kodomo":"N","Type":"認可保育所","Add1":"千葉市花見川区幕張本郷6-27-10","Add2":null,"url":null,"TEL":"215-8871","FAX":null,"Full":"56","AgeS":null,"AgeE":null,"Open":"7:00","Close":"20:00","H24":"N","Memo":null,"Extra":null,"Temp":"N","Holiday":"N","Night":null,"Vacancy":"Y","VacancyDate":null}},{"type":"Feature","geometry":{"type":"Point","coordinates":[140.0386278,35.668226]},"properties":{"Name":"幕張本郷ナーサリー","Label":"幕張本郷ナーサリー","Owner":null,"Ownership":"私立","Proof":"Y","Shanai":"N","Kodomo":"N","Type":"認可保育所","Add1":"千葉市花見川区幕張本郷2-21-1","Add2":null,"url":null,"TEL":"272-5666","FAX":null,"Full":"48","AgeS":null,"AgeE":null,"Open":"7:00","Close":"20:00","H24":"N","Memo":null,"Extra":null,"Temp":"N","Holiday":"N","Night":null,"Vacancy":null,"VacancyDate":null}},{"type":"Feature","geometry":{"type":"Point","coordinates":[140.0488437,35.6623993]},"properties":{"Name":"みどり保育園","Label":"みどり保育園","Owner":null,"Ownership":"私立","Proof":"Y","Shanai":"N","Kodomo":"N","Type":"認可保育所","Add1":"千葉市花見川区幕張町2-972","Add2":null,"url":null,"TEL":"272-3610","FAX":null,"Full":"90","AgeS":null,"AgeE":null,"Open":"7:00","Close":"20:00","H24":"N","Memo":null,"Extra":null,"Temp":"N","Holiday":"N","Night":null,"Vacancy":null,"VacancyDate":null}},{"type":"Feature","geometry":{"type":"Point","coordinates":[140.0429135,35.6702176]},"properties":{"Name":"キッズスペース・ウィーピー幕張本郷","Label":"キッズスペース・ウィーピー幕張本郷","Owner":null,"Ownership":"私立","Proof":"Y","Shanai":"N","Kodomo":"N","Type":"認可保育所","Add1":"千葉市花見川区幕張本郷2-6-4","Add2":null,"url":null,"TEL":"213-8311","FAX":null,"Full":"19","AgeS":null,"AgeE":null,"Open":"7:00","Close":"20:00","H24":"N","Memo":null,"Extra":null,"Temp":"N","Holiday":"N","Night":null,"Vacancy":null,"VacancyDate":null}},{"type":"Feature","geometry":{"type":"Point","coordinates":[140.0542239,35.6587165]},"properties":{"Name":"Kid's Patio まくはり園","Label":"Kid's Patio まくはり園","Owner":null,"Ownership":"私立","Proof":"Y","Shanai":"N","Kodomo":"N","Type":"認可保育所","Add1":"千葉市花見川区幕張町5-498-2","Add2":null,"url":null,"TEL":"306-9368","FAX":null,"Full":"18","AgeS":null,"AgeE":null,"Open":"7:30","Close":"20:30","H24":"N","Memo":null,"Extra":null,"Temp":"N","Holiday":"N","Night":null,"Vacancy":"Y","VacancyDate":null}},{"type":"Feature","geometry":{"type":"Point","coordinates":[140.0540573,35.6599608]},"properties":{"Name":"星のおうち","Label":"星のおうち","Owner":null,"Ownership":"私立","Proof":"Y","Shanai":"N","Kodomo":"N","Type":"認可保育所","Add1":"千葉市花見川区幕張町4-586-1","Add2":null,"url":null,"TEL":"306-5122","FAX":null,"Full":"9","AgeS":null,"AgeE":null,"Open":"7:00","Close":"19:00","H24":"N","Memo":null,"Extra":null,"Temp":"N","Holiday":"N","Night":null,"Vacancy":null,"VacancyDate":null}},{"type":"Feature","geometry":{"type":"Point","coordinates":[140.1066775,35.6460801]},"properties":{"Name":"ウィズダムナーサリースクール","Label":"ウィズダムナーサリースクール","Owner":null,"Ownership":"私立","Proof":"Y","Shanai":"N","Kodomo":"Y","Type":"認可保育所","Add1":"千葉市稲毛区園生町787-4","Add2":null,"url":null,"TEL":"287-0008","FAX":null,"Full":"50","AgeS":null,"AgeE":null,"Open":"7:00","Close":"20:00","H24":"N","Memo":"一時預かりは不定期利用のみ","Extra":null,"Temp":"Y","Holiday":"N","Night":null,"Vacancy":null,"VacancyDate":null}},{"type":"Feature","geometry":{"type":"Point","coordinates":[140.1135743,35.6329686]},"properties":{"Name":"小ばと幼稚園","Label":"小ばと幼稚園","Owner":null,"Ownership":"私立","Proof":"Y","Shanai":"N","Kodomo":"Y","Type":"認可保育所","Add1":"千葉市稲毛区天台1-7-17","Add2":null,"url":null,"TEL":"251-6471","FAX":null,"Full":"50","AgeS":null,"AgeE":null,"Open":"7:30","Close":"18:30","H24":"N","Memo":null,"Extra":null,"Temp":"N","Holiday":"N","Night":null,"Vacancy":null,"VacancyDate":null}},{"type":"Feature","geometry":{"type":"Point","coordinates":[140.1165042,35.6491413]},"properties":{"Name":"あやめ台第一保育所","Label":"あやめ台第一保育所","Owner":"千葉市","Ownership":"公立","Proof":"Y","Shanai":"N","Kodomo":"N","Type":"認可保育所","Add1":"千葉市稲毛区あやめ台1-15-101","Add2":null,"url":null,"TEL":"252-5756","FAX":null,"Full":"100","AgeS":null,"AgeE":null,"Open":"7:00","Close":"19:00","H24":"N","Memo":null,"Extra":null,"Temp":"N","Holiday":"N","Night":null,"Vacancy":null,"VacancyDate":null}},{"type":"Feature","geometry":{"type":"Point","coordinates":[140.1115298,35.648405]},"properties":{"Name":"あやめ台第二保育所","Label":"あやめ台第二保育所","Owner":"千葉市","Ownership":"公立","Proof":"Y","Shanai":"N","Kodomo":"N","Type":"認可保育所","Add1":"千葉市稲毛区あやめ台3-19","Add2":null,"url":null,"TEL":"254-6130","FAX":null,"Full":"90","AgeS":null,"AgeE":null,"Open":"7:00","Close":"19:00","H24":"N","Memo":null,"Extra":null,"Temp":"N","Holiday":"N","Night":null,"Vacancy":null,"VacancyDate":null}},{"type":"Feature","geometry":{"type":"Point","coordinates":[140.0936046,35.6268377]},"properties":{"Name":"黒砂保育所","Label":"黒砂保育所","Owner":"千葉市","Ownership":"公立","Proof":"Y","Shanai":"N","Kodomo":"N","Type":"認可保育所","Add1":"千葉市稲毛区黒砂2-4-24","Add2":null,"url":null,"TEL":"246-1161","FAX":null,"Full":"90","AgeS":null,"AgeE":null,"Open":"7:00","Close":"19:00","H24":"N","Memo":null,"Extra":null,"Temp":"Y","Holiday":"N","Night":null,"Vacancy":null,"VacancyDate":null}},{"type":"Feature","geometry":{"type":"Point","coordinates":[140.0970091,35.6478711]},"properties":{"Name":"小中台保育所","Label":"小中台保育所","Owner":"千葉市","Ownership":"公立","Proof":"Y","Shanai":"N","Kodomo":"N","Type":"認可保育所","Add1":"千葉市稲毛区小仲台9-30-2","Add2":null,"url":null,"TEL":"252-0608","FAX":null,"Full":"90","AgeS":null,"AgeE":null,"Open":"7:00","Close":"19:00","H24":"N","Memo":null,"Extra":null,"Temp":"N","Holiday":"N","Night":null,"Vacancy":null,"VacancyDate":null}},{"type":"Feature","geometry":{"type":"Point","coordinates":[140.1502411,35.6608751]},"properties":{"Name":"小深保育所","Label":"小深保育所","Owner":"千葉市","Ownership":"公立","Proof":"Y","Shanai":"N","Kodomo":"N","Type":"認可保育所","Add1":"千葉市稲毛区小深町261-7","Add2":null,"url":null,"TEL":"423-0062","FAX":null,"Full":"80","AgeS":null,"AgeE":null,"Open":"7:00","Close":"19:00","H24":"N","Memo":null,"Extra":null,"Temp":"N","Holiday":"N","Night":null,"Vacancy":null,"VacancyDate":null}},{"type":"Feature","geometry":{"type":"Point","coordinates":[140.1239452,35.6524857]},"properties":{"Name":"園生保育所","Label":"園生保育所","Owner":"千葉市","Ownership":"公立","Proof":"Y","Shanai":"N","Kodomo":"N","Type":"認可保育所","Add1":"千葉市稲毛区園生町1325-1","Add2":null,"url":null,"TEL":"252-2818","FAX":null,"Full":"110","AgeS":null,"AgeE":null,"Open":"7:00","Close":"19:00","H24":"N","Memo":null,"Extra":null,"Temp":"N","Holiday":"N","Night":null,"Vacancy":"Y","VacancyDate":null}},{"type":"Feature","geometry":{"type":"Point","coordinates":[140.1183208,35.6356406]},"properties":{"Name":"千草台保育所","Label":"千草台保育所","Owner":"千葉市","Ownership":"公立","Proof":"Y","Shanai":"N","Kodomo":"N","Type":"認可保育所","Add1":"千葉市稲毛区千草台1-1-27","Add2":null,"url":null,"TEL":"251-6307","FAX":null,"Full":"120","AgeS":null,"AgeE":null,"Open":"7:00","Close":"19:00","H24":"N","Memo":null,"Extra":null,"Temp":"N","Holiday":"N","Night":null,"Vacancy":null,"VacancyDate":null}},{"type":"Feature","geometry":{"type":"Point","coordinates":[140.114541,35.6310051]},"properties":{"Name":"天台保育所","Label":"天台保育所","Owner":"千葉市","Ownership":"公立","Proof":"Y","Shanai":"N","Kodomo":"N","Type":"認可保育所","Add1":"千葉市稲毛区天台1-10-6","Add2":null,"url":null,"TEL":"253-1442","FAX":null,"Full":"90","AgeS":null,"AgeE":null,"Open":"7:00","Close":"19:00","H24":"N","Memo":null,"Extra":null,"Temp":"N","Holiday":"N","Night":null,"Vacancy":null,"VacancyDate":null}},{"type":"Feature","geometry":{"type":"Point","coordinates":[140.1101892,35.6247336]},"properties":{"Name":"轟保育所","Label":"轟保育所","Owner":"千葉市","Ownership":"公立","Proof":"Y","Shanai":"N","Kodomo":"N","Type":"認可保育所","Add1":"千葉市稲毛区轟町1-12-13","Add2":null,"url":null,"TEL":"251-5105","FAX":null,"Full":"160","AgeS":null,"AgeE":null,"Open":"7:00","Close":"20:00","H24":"N","Memo":null,"Extra":null,"Temp":"N","Holiday":"N","Night":null,"Vacancy":null,"VacancyDate":null}},{"type":"Feature","geometry":{"type":"Point","coordinates":[140.1243451,35.6701025]},"properties":{"Name":"長沼原保育所","Label":"長沼原保育所","Owner":"千葉市","Ownership":"公立","Proof":"Y","Shanai":"N","Kodomo":"N","Type":"認可保育所","Add1":"千葉市稲毛区長沼原町242-2","Add2":null,"url":null,"TEL":"259-2848","FAX":null,"Full":"70","AgeS":null,"AgeE":null,"Open":"7:00","Close":"19:00","H24":"N","Memo":null,"Extra":null,"Temp":"N","Holiday":"N","Night":null,"Vacancy":"Y","VacancyDate":null}},{"type":"Feature","geometry":{"type":"Point","coordinates":[140.0954129,35.6232884]},"properties":{"Name":"緑町保育所","Label":"緑町保育所","Owner":"千葉市","Ownership":"公立","Proof":"Y","Shanai":"N","Kodomo":"N","Type":"認可保育所","Add1":"千葉市稲毛区緑町2-22-1","Add2":null,"url":null,"TEL":"241-0837","FAX":null,"Full":"80","AgeS":null,"AgeE":null,"Open":"7:00","Close":"19:00","H24":"N","Memo":null,"Extra":null,"Temp":"N","Holiday":"N","Night":null,"Vacancy":null,"VacancyDate":null}},{"type":"Feature","geometry":{"type":"Point","coordinates":[140.1017391,35.6523402]},"properties":{"Name":"宮野木保育所","Label":"宮野木保育所","Owner":"千葉市","Ownership":"公立","Proof":"Y","Shanai":"N","Kodomo":"N","Type":"認可保育所","Add1":"千葉市稲毛区園生町238-56","Add2":null,"url":null,"TEL":"255-4661","FAX":null,"Full":"150","AgeS":null,"AgeE":null,"Open":"7:00","Close":"20:00","H24":"N","Memo":null,"Extra":null,"Temp":"N","Holiday":"N","Night":null,"Vacancy":null,"VacancyDate":null}},{"type":"Feature","geometry":{"type":"Point","coordinates":[140.0896547,35.6378552]},"properties":{"Name":"アストロキャンプ稲毛東保育園","Label":"アストロキャンプ稲毛東保育園","Owner":null,"Ownership":"私立","Proof":"Y","Shanai":"N","Kodomo":"N","Type":"認可保育所","Add1":"千葉市稲毛区稲毛東4-2-21","Add2":null,"url":null,"TEL":"247-1510","FAX":null,"Full":"40","AgeS":null,"AgeE":null,"Open":"7:00","Close":"20:00","H24":"N","Memo":null,"Extra":null,"Temp":"Y","Holiday":"N","Night":null,"Vacancy":null,"VacancyDate":null}},{"type":"Feature","geometry":{"type":"Point","coordinates":[140.0892295,35.6444378]},"properties":{"Name":"アストロナーサリー小仲台","Label":"アストロナーサリー小仲台","Owner":null,"Ownership":"私立","Proof":"Y","Shanai":"N","Kodomo":"N","Type":"認可保育所","Add1":"千葉市稲毛区小仲台7-10-36","Add2":null,"url":null,"TEL":"306-1510","FAX":null,"Full":"30","AgeS":null,"AgeE":null,"Open":"7:00","Close":"20:00","H24":"N","Memo":null,"Extra":null,"Temp":"Y","Holiday":"N","Night":null,"Vacancy":"Y","VacancyDate":null}},{"type":"Feature","geometry":{"type":"Point","coordinates":[140.0945652,35.6380722]},"properties":{"Name":"稲毛保育園","Label":"稲毛保育園","Owner":null,"Ownership":"私立","Proof":"Y","Shanai":"N","Kodomo":"N","Type":"認可保育所","Add1":"千葉市稲毛区小仲台2-10-1","Add2":null,"url":null,"TEL":"251-8196","FAX":null,"Full":"140","AgeS":null,"AgeE":null,"Open":"7:00","Close":"20:00","H24":"N","Memo":null,"Extra":null,"Temp":"Y","Holiday":"N","Night":null,"Vacancy":null,"VacancyDate":null}},{"type":"Feature","geometry":{"type":"Point","coordinates":[140.0934236,35.6400552]},"properties":{"Name":"稲毛すきっぷ保育園","Label":"稲毛すきっぷ保育園","Owner":null,"Ownership":"私立","Proof":"Y","Shanai":"N","Kodomo":"N","Type":"認可保育所","Add1":"千葉市稲毛区小仲台6-12-16","Add2":null,"url":null,"TEL":"290-5615","FAX":null,"Full":"48","AgeS":null,"AgeE":null,"Open":"7:00","Close":"20:00","H24":"N","Memo":null,"Extra":null,"Temp":"N","Holiday":"N","Night":null,"Vacancy":"Y","VacancyDate":null}},{"type":"Feature","geometry":{"type":"Point","coordinates":[140.0963482,35.6413969]},"properties":{"Name":"稲毛ひだまり保育園","Label":"稲毛ひだまり保育園","Owner":null,"Ownership":"私立","Proof":"Y","Shanai":"N","Kodomo":"N","Type":"認可保育所","Add1":"千葉市稲毛区小仲台5-3-2","Add2":null,"url":null,"TEL":"206-1321","FAX":null,"Full":"59","AgeS":null,"AgeE":null,"Open":"7:00","Close":"20:00","H24":"N","Memo":null,"Extra":null,"Temp":"N","Holiday":"N","Night":null,"Vacancy":"Y","VacancyDate":null}},{"type":"Feature","geometry":{"type":"Point","coordinates":[140.0880965,35.6377691]},"properties":{"Name":"いなほ保育園","Label":"いなほ保育園","Owner":null,"Ownership":"私立","Proof":"Y","Shanai":"N","Kodomo":"N","Type":"認可保育所","Add1":"千葉市稲毛区稲毛東2-17-13 2F","Add2":null,"url":null,"TEL":"244-7261","FAX":null,"Full":"50","AgeS":null,"AgeE":null,"Open":"7:00","Close":"20:00","H24":"N","Memo":null,"Extra":null,"Temp":"N","Holiday":"N","Night":null,"Vacancy":"Y","VacancyDate":null}},{"type":"Feature","geometry":{"type":"Point","coordinates":[140.0924197,35.6351807]},"properties":{"Name":"ココファン・ナーサリー稲毛","Label":"ココファン・ナーサリー稲毛","Owner":null,"Ownership":"私立","Proof":"Y","Shanai":"N","Kodomo":"N","Type":"認可保育所","Add1":"千葉市稲毛区稲毛東3-12-2","Add2":null,"url":null,"TEL":"243-9151","FAX":null,"Full":"59","AgeS":null,"AgeE":null,"Open":"7:00","Close":"20:00","H24":"N","Memo":null,"Extra":null,"Temp":"N","Holiday":"N","Night":null,"Vacancy":null,"VacancyDate":null}},{"type":"Feature","geometry":{"type":"Point","coordinates":[140.0901574,35.6385524]},"properties":{"Name":"ココファン・ナーサリー稲毛東","Label":"ココファン・ナーサリー稲毛東","Owner":null,"Ownership":"私立","Proof":"Y","Shanai":"N","Kodomo":"N","Type":"認可保育所","Add1":"千葉市稲毛区稲毛東4-8-10","Add2":null,"url":null,"TEL":"243-3531","FAX":null,"Full":"56","AgeS":null,"AgeE":null,"Open":"7:00","Close":"20:00","H24":"N","Memo":null,"Extra":null,"Temp":"N","Holiday":"N","Night":null,"Vacancy":"Y","VacancyDate":null}},{"type":"Feature","geometry":{"type":"Point","coordinates":[140.1247154,35.6278452]},"properties":{"Name":"作草部保育園","Label":"作草部保育園","Owner":null,"Ownership":"私立","Proof":"Y","Shanai":"N","Kodomo":"N","Type":"認可保育所","Add1":"千葉市稲毛区作草部町698-3","Add2":null,"url":null,"TEL":"256-1753","FAX":null,"Full":"90","AgeS":null,"AgeE":null,"Open":"7:00","Close":"20:00","H24":"N","Memo":null,"Extra":null,"Temp":"N","Holiday":"N","Night":null,"Vacancy":null,"VacancyDate":null}},{"type":"Feature","geometry":{"type":"Point","coordinates":[140.1401249,35.6649598]},"properties":{"Name":"山王保育園","Label":"山王保育園","Owner":null,"Ownership":"私立","Proof":"Y","Shanai":"N","Kodomo":"N","Type":"認可保育所","Add1":"千葉市稲毛区山王町153-16","Add2":null,"url":null,"TEL":"304-1188","FAX":null,"Full":"45","AgeS":null,"AgeE":null,"Open":"7:00","Close":"20:00","H24":"N","Memo":null,"Extra":null,"Temp":"N","Holiday":"N","Night":null,"Vacancy":null,"VacancyDate":null}},{"type":"Feature","geometry":{"type":"Point","coordinates":[140.0972232,35.6386834]},"properties":{"Name":"ししの子保育園","Label":"ししの子保育園","Owner":null,"Ownership":"私立","Proof":"Y","Shanai":"N","Kodomo":"N","Type":"認可保育所","Add1":"千葉市稲毛区小仲台3-8-5","Add2":null,"url":null,"TEL":"305-4367","FAX":null,"Full":"58","AgeS":null,"AgeE":null,"Open":"7:00","Close":"20:00","H24":"N","Memo":null,"Extra":null,"Temp":"N","Holiday":"N","Night":null,"Vacancy":null,"VacancyDate":null}},{"type":"Feature","geometry":{"type":"Point","coordinates":[140.0925627,35.6383054]},"properties":{"Name":"チャイルド・ガーデン保育園","Label":"チャイルド・ガーデン保育園","Owner":null,"Ownership":"私立","Proof":"Y","Shanai":"N","Kodomo":"N","Type":"認可保育所","Add1":"千葉市稲毛区小仲台8-4-6 2F","Add2":null,"url":null,"TEL":"206-8600","FAX":null,"Full":"110","AgeS":null,"AgeE":null,"Open":"7:00","Close":"20:00","H24":"N","Memo":null,"Extra":null,"Temp":"N","Holiday":"N","Night":null,"Vacancy":"Y","VacancyDate":null}},{"type":"Feature","geometry":{"type":"Point","coordinates":[140.0903183,35.6447711]},"properties":{"Name":"南小中台保育園","Label":"南小中台保育園","Owner":null,"Ownership":"私立","Proof":"Y","Shanai":"N","Kodomo":"N","Type":"認可保育所","Add1":"千葉市稲毛区小仲台8-21-1","Add2":null,"url":null,"TEL":"256-1330","FAX":null,"Full":"120","AgeS":null,"AgeE":null,"Open":"7:00","Close":"20:00","H24":"N","Memo":null,"Extra":null,"Temp":"N","Holiday":"N","Night":null,"Vacancy":"Y","VacancyDate":null}},{"type":"Feature","geometry":{"type":"Point","coordinates":[140.0920015,35.6405995]},"properties":{"Name":"アストロミニキャンプ小仲台","Label":"アストロミニキャンプ小仲台","Owner":null,"Ownership":"私立","Proof":"Y","Shanai":"N","Kodomo":"N","Type":"認可保育所","Add1":"千葉市稲毛区小仲台6-9-1","Add2":null,"url":null,"TEL":"306-4800","FAX":null,"Full":"9","AgeS":null,"AgeE":null,"Open":"7:00","Close":"20:00","H24":"N","Memo":null,"Extra":null,"Temp":"N","Holiday":"N","Night":null,"Vacancy":null,"VacancyDate":null}},{"type":"Feature","geometry":{"type":"Point","coordinates":[140.0925404,35.6384942]},"properties":{"Name":"キッズルームチャコ稲毛園","Label":"キッズルームチャコ稲毛園","Owner":null,"Ownership":"私立","Proof":"Y","Shanai":"N","Kodomo":"N","Type":"認可保育所","Add1":"千葉市稲毛区小仲台6-2-10","Add2":null,"url":null,"TEL":"207-4088","FAX":null,"Full":"18","AgeS":null,"AgeE":null,"Open":"7:00","Close":"22:00","H24":"N","Memo":null,"Extra":null,"Temp":"Y","Holiday":"Y","Night":null,"Vacancy":null,"VacancyDate":null}},{"type":"Feature","geometry":{"type":"Point","coordinates":[140.1082025,35.6376147]},"properties":{"Name":"キッズルームわかば","Label":"キッズルームわかば","Owner":null,"Ownership":"私立","Proof":"Y","Shanai":"N","Kodomo":"N","Type":"認可保育所","Add1":"千葉市稲毛区穴川3-6-17","Add2":null,"url":null,"TEL":"207-5520","FAX":null,"Full":"18","AgeS":null,"AgeE":null,"Open":"7:00","Close":"20:00","H24":"N","Memo":null,"Extra":null,"Temp":"N","Holiday":"N","Night":null,"Vacancy":null,"VacancyDate":null}},{"type":"Feature","geometry":{"type":"Point","coordinates":[140.104314,35.6411668]},"properties":{"Name":"園生幼稚園附属園生保育園（地域枠）","Label":"園生幼稚園附属園生保育園（地域枠）","Owner":null,"Ownership":"私立","Proof":"Y","Shanai":"Y","Kodomo":"N","Type":"認可保育所","Add1":"千葉市稲毛区園生町956-5","Add2":null,"url":null,"TEL":"290-4321","FAX":null,"Full":"6","AgeS":null,"AgeE":null,"Open":"7:30","Close":"18:30","H24":"N","Memo":null,"Extra":null,"Temp":"N","Holiday":"N","Night":null,"Vacancy":null,"VacancyDate":null}},{"type":"Feature","geometry":{"type":"Point","coordinates":[140.2000369,35.6186255]},"properties":{"Name":"千城台東認定こども園","Label":"千城台東認定こども園","Owner":"千葉市","Ownership":"公立","Proof":"Y","Shanai":"N","Kodomo":"Y","Type":"認可保育所","Add1":"千葉市若葉区千城台東4-33-1","Add2":null,"url":null,"TEL":"236-0431","FAX":null,"Full":"110","AgeS":null,"AgeE":null,"Open":"7:00","Close":"19:00","H24":"N","Memo":null,"Extra":null,"Temp":"N","Holiday":"N","Night":null,"Vacancy":"Y","VacancyDate":null}},{"type":"Feature","geometry":{"type":"Point","coordinates":[140.1811954,35.5962272]},"properties":{"Name":"大宮台保育所","Label":"大宮台保育所","Owner":"千葉市","Ownership":"公立","Proof":"Y","Shanai":"N","Kodomo":"N","Type":"認可保育所","Add1":"千葉市若葉区大宮台7-8-2","Add2":null,"url":null,"TEL":"263-4284","FAX":null,"Full":"90","AgeS":null,"AgeE":null,"Open":"7:00","Close":"19:00","H24":"N","Memo":null,"Extra":null,"Temp":"N","Holiday":"N","Night":null,"Vacancy":"Y","VacancyDate":null}},{"type":"Feature","geometry":{"type":"Point","coordinates":[140.1711593,35.6286304]},"properties":{"Name":"小倉台保育所","Label":"小倉台保育所","Owner":"千葉市","Ownership":"公立","Proof":"Y","Shanai":"N","Kodomo":"N","Type":"認可保育所","Add1":"千葉市若葉区小倉台4-18-2","Add2":null,"url":null,"TEL":"231-2183","FAX":null,"Full":"55","AgeS":null,"AgeE":null,"Open":"7:00","Close":"19:00","H24":"N","Memo":null,"Extra":null,"Temp":"N","Holiday":"N","Night":null,"Vacancy":null,"VacancyDate":null}},{"type":"Feature","geometry":{"type":"Point","coordinates":[140.180878,35.6126258]},"properties":{"Name":"坂月保育所","Label":"坂月保育所","Owner":"千葉市","Ownership":"公立","Proof":"Y","Shanai":"N","Kodomo":"N","Type":"認可保育所","Add1":"千葉市若葉区坂月町294-1","Add2":null,"url":null,"TEL":"236-5591","FAX":null,"Full":"70","AgeS":null,"AgeE":null,"Open":"7:00","Close":"19:00","H24":"N","Memo":null,"Extra":null,"Temp":"N","Holiday":"N","Night":null,"Vacancy":"Y","VacancyDate":null}},{"type":"Feature","geometry":{"type":"Point","coordinates":[140.1564753,35.6176731]},"properties":{"Name":"桜木保育所","Label":"桜木保育所","Owner":"千葉市","Ownership":"公立","Proof":"Y","Shanai":"N","Kodomo":"N","Type":"認可保育所","Add1":"千葉市若葉区桜木1-40-1","Add2":null,"url":null,"TEL":"232-1633","FAX":null,"Full":"140","AgeS":null,"AgeE":null,"Open":"7:00","Close":"19:00","H24":"N","Memo":null,"Extra":null,"Temp":"N","Holiday":"N","Night":null,"Vacancy":null,"VacancyDate":null}},{"type":"Feature","geometry":{"type":"Point","coordinates":[140.2277671,35.6203731]},"properties":{"Name":"更科保育所","Label":"更科保育所","Owner":"千葉市","Ownership":"公立","Proof":"Y","Shanai":"N","Kodomo":"N","Type":"認可保育所","Add1":"千葉市若葉区更科町2073-27","Add2":null,"url":null,"TEL":"239-0571","FAX":null,"Full":"40","AgeS":null,"AgeE":null,"Open":"7:00","Close":"18:00","H24":"N","Memo":null,"Extra":null,"Temp":"N","Holiday":"N","Night":null,"Vacancy":"Y","VacancyDate":null}},{"type":"Feature","geometry":{"type":"Point","coordinates":[140.1950719,35.5977548]},"properties":{"Name":"多部田保育所","Label":"多部田保育所","Owner":"千葉市","Ownership":"公立","Proof":"Y","Shanai":"N","Kodomo":"N","Type":"認可保育所","Add1":"千葉市若葉区多部田町754-39","Add2":null,"url":null,"TEL":"228-4660","FAX":null,"Full":"70","AgeS":null,"AgeE":null,"Open":"7:00","Close":"19:00","H24":"N","Memo":null,"Extra":null,"Temp":"N","Holiday":"N","Night":null,"Vacancy":"Y","VacancyDate":null}},{"type":"Feature","geometry":{"type":"Point","coordinates":[140.18145,35.6185671]},"properties":{"Name":"千城台西保育所","Label":"千城台西保育所","Owner":"千葉市","Ownership":"公立","Proof":"Y","Shanai":"N","Kodomo":"N","Type":"認可保育所","Add1":"千葉市若葉区千城台西3-8-1","Add2":null,"url":null,"TEL":"237-1688","FAX":null,"Full":"110","AgeS":null,"AgeE":null,"Open":"7:00","Close":"19:00","H24":"N","Memo":null,"Extra":null,"Temp":"N","Holiday":"N","Night":null,"Vacancy":"Y","VacancyDate":null}},{"type":"Feature","geometry":{"type":"Point","coordinates":[140.193457,35.6192503]},"properties":{"Name":"千城台東第一保育所","Label":"千城台東第一保育所","Owner":"千葉市","Ownership":"公立","Proof":"Y","Shanai":"N","Kodomo":"N","Type":"認可保育所","Add1":"千葉市若葉区千城台東2-8-1","Add2":null,"url":null,"TEL":"237-1402","FAX":null,"Full":"180","AgeS":null,"AgeE":null,"Open":"7:00","Close":"20:00","H24":"N","Memo":null,"Extra":null,"Temp":"N","Holiday":"N","Night":null,"Vacancy":"Y","VacancyDate":null}},{"type":"Feature","geometry":{"type":"Point","coordinates":[140.1440667,35.6437248]},"properties":{"Name":"都賀の台保育所","Label":"都賀の台保育所","Owner":"千葉市","Ownership":"公立","Proof":"Y","Shanai":"N","Kodomo":"N","Type":"認可保育所","Add1":"千葉市若葉区都賀の台3-6-1","Add2":null,"url":null,"TEL":"256-1956","FAX":null,"Full":"115","AgeS":null,"AgeE":null,"Open":"7:00","Close":"20:00","H24":"N","Memo":null,"Extra":null,"Temp":"N","Holiday":"N","Night":null,"Vacancy":null,"VacancyDate":null}},{"type":"Feature","geometry":{"type":"Point","coordinates":[140.2295395,35.5838121]},"properties":{"Name":"野呂保育所","Label":"野呂保育所","Owner":"千葉市","Ownership":"公立","Proof":"Y","Shanai":"N","Kodomo":"N","Type":"認可保育所","Add1":"千葉市若葉区野呂町622","Add2":null,"url":null,"TEL":"228-0203","FAX":null,"Full":"50","AgeS":null,"AgeE":null,"Open":"7:00","Close":"18:00","H24":"N","Memo":null,"Extra":null,"Temp":"N","Holiday":"N","Night":null,"Vacancy":"Y","VacancyDate":null}},{"type":"Feature","geometry":{"type":"Point","coordinates":[140.1436338,35.6316488]},"properties":{"Name":"旭ヶ丘保育園","Label":"旭ヶ丘保育園","Owner":null,"Ownership":"私立","Proof":"Y","Shanai":"N","Kodomo":"N","Type":"認可保育所","Add1":"千葉市若葉区都賀１－1－1","Add2":null,"url":null,"TEL":"231-5047","FAX":null,"Full":"120","AgeS":null,"AgeE":null,"Open":"7:00","Close":"20:00","H24":"N","Memo":null,"Extra":null,"Temp":"Y","Holiday":"N","Night":null,"Vacancy":null,"VacancyDate":null}},{"type":"Feature","geometry":{"type":"Point","coordinates":[140.1498,35.6374986]},"properties":{"Name":"キッズマーム保育園","Label":"キッズマーム保育園","Owner":null,"Ownership":"私立","Proof":"Y","Shanai":"N","Kodomo":"N","Type":"認可保育所","Add1":"千葉市若葉区西都賀3-17-12","Add2":null,"url":null,"TEL":"206-0177","FAX":null,"Full":"58","AgeS":null,"AgeE":null,"Open":"7:00","Close":"20:00","H24":"N","Memo":null,"Extra":null,"Temp":"N","Holiday":"N","Night":null,"Vacancy":null,"VacancyDate":null}},{"type":"Feature","geometry":{"type":"Point","coordinates":[140.1703675,35.6361576]},"properties":{"Name":"すずらん保育園","Label":"すずらん保育園","Owner":null,"Ownership":"私立","Proof":"Y","Shanai":"N","Kodomo":"N","Type":"認可保育所","Add1":"千葉市若葉区若松町2106-3","Add2":null,"url":null,"TEL":"231-0380","FAX":null,"Full":"90","AgeS":null,"AgeE":null,"Open":"7:00","Close":"20:00","H24":"N","Memo":null,"Extra":null,"Temp":"N","Holiday":"N","Night":null,"Vacancy":null,"VacancyDate":null}},{"type":"Feature","geometry":{"type":"Point","coordinates":[140.135631,35.6395414]},"properties":{"Name":"たいよう保育園","Label":"たいよう保育園","Owner":null,"Ownership":"私立","Proof":"Y","Shanai":"N","Kodomo":"N","Type":"認可保育所","Add1":"千葉市若葉区みつわ台3-12-1","Add2":null,"url":null,"TEL":"255-3626","FAX":null,"Full":"110","AgeS":null,"AgeE":null,"Open":"7:00","Close":"20:00","H24":"N","Memo":null,"Extra":null,"Temp":"N","Holiday":"N","Night":null,"Vacancy":null,"VacancyDate":null}},{"type":"Feature","geometry":{"type":"Point","coordinates":[140.1465638,35.6464245]},"properties":{"Name":"千葉聖心保育園","Label":"千葉聖心保育園","Owner":null,"Ownership":"私立","Proof":"Y","Shanai":"N","Kodomo":"N","Type":"認可保育所","Add1":"千葉市若葉区若松町531-197","Add2":null,"url":null,"TEL":"304-3606","FAX":null,"Full":"75","AgeS":null,"AgeE":null,"Open":"7:00","Close":"20:00","H24":"N","Memo":null,"Extra":null,"Temp":"N","Holiday":"N","Night":null,"Vacancy":"Y","VacancyDate":null}},{"type":"Feature","geometry":{"type":"Point","coordinates":[140.1540082,35.6367019]},"properties":{"Name":"都賀保育園","Label":"都賀保育園","Owner":null,"Ownership":"私立","Proof":"Y","Shanai":"N","Kodomo":"N","Type":"認可保育所","Add1":"千葉市若葉区都賀5-1-11","Add2":null,"url":null,"TEL":"231-1600","FAX":null,"Full":"90","AgeS":null,"AgeE":null,"Open":"7:00","Close":"20:00","H24":"N","Memo":null,"Extra":null,"Temp":"Y","Holiday":"N","Night":null,"Vacancy":null,"VacancyDate":null}},{"type":"Feature","geometry":{"type":"Point","coordinates":[140.1382058,35.649104]},"properties":{"Name":"まほろばのお日さま保育園","Label":"まほろばのお日さま保育園","Owner":null,"Ownership":"私立","Proof":"Y","Shanai":"N","Kodomo":"N","Type":"認可保育所","Add1":"千葉市若葉区みつわ台5-21-14","Add2":null,"url":null,"TEL":"307-5518","FAX":null,"Full":"29","AgeS":null,"AgeE":null,"Open":"7:00","Close":"20:00","H24":"N","Memo":null,"Extra":null,"Temp":"N","Holiday":"N","Night":null,"Vacancy":null,"VacancyDate":null}},{"type":"Feature","geometry":{"type":"Point","coordinates":[140.1505778,35.6376903]},"properties":{"Name":"マミー＆ミー西都賀","Label":"マミー＆ミー西都賀","Owner":null,"Ownership":"私立","Proof":"Y","Shanai":"N","Kodomo":"N","Type":"認可保育所","Add1":"千葉市若葉区西都賀3-20-3 1Ｆ","Add2":null,"url":null,"TEL":"290-5860","FAX":null,"Full":"28","AgeS":null,"AgeE":null,"Open":"7:00","Close":"20:00","H24":"N","Memo":null,"Extra":null,"Temp":"N","Holiday":"N","Night":null,"Vacancy":"Y","VacancyDate":null}},{"type":"Feature","geometry":{"type":"Point","coordinates":[140.1341921,35.6472401]},"properties":{"Name":"みつわ台保育園","Label":"みつわ台保育園","Owner":null,"Ownership":"私立","Proof":"Y","Shanai":"N","Kodomo":"N","Type":"認可保育所","Add1":"千葉市若葉区みつわ台5-8-8","Add2":null,"url":null,"TEL":"255-7041","FAX":null,"Full":"120","AgeS":null,"AgeE":null,"Open":"7:00","Close":"20:00","H24":"N","Memo":null,"Extra":null,"Temp":"N","Holiday":"N","Night":null,"Vacancy":"Y","VacancyDate":null}},{"type":"Feature","geometry":{"type":"Point","coordinates":[140.1516083,35.6368905]},"properties":{"Name":"ミルキーホーム都賀園","Label":"ミルキーホーム都賀園","Owner":null,"Ownership":"私立","Proof":"Y","Shanai":"N","Kodomo":"N","Type":"認可保育所","Add1":"千葉市若葉区都賀3-8-14","Add2":null,"url":null,"TEL":"235-1077","FAX":null,"Full":"50","AgeS":null,"AgeE":null,"Open":"7:00","Close":"21:00","H24":"N","Memo":null,"Extra":null,"Temp":"Y","Holiday":"Y","Night":null,"Vacancy":null,"VacancyDate":null}},{"type":"Feature","geometry":{"type":"Point","coordinates":[140.1686205,35.6343188]},"properties":{"Name":"若竹保育園","Label":"若竹保育園","Owner":null,"Ownership":"私立","Proof":"Y","Shanai":"N","Kodomo":"N","Type":"認可保育所","Add1":"千葉市若葉区若松町336","Add2":null,"url":null,"TEL":"231-2114","FAX":null,"Full":"150","AgeS":null,"AgeE":null,"Open":"7:00","Close":"20:00","H24":"N","Memo":null,"Extra":null,"Temp":"Y","Holiday":"N","Night":null,"Vacancy":null,"VacancyDate":null}},{"type":"Feature","geometry":{"type":"Point","coordinates":[140.1413725,35.6359592]},"properties":{"Name":"若葉保育園","Label":"若葉保育園","Owner":null,"Ownership":"私立","Proof":"Y","Shanai":"N","Kodomo":"N","Type":"認可保育所","Add1":"千葉市若葉区原町925-21","Add2":null,"url":null,"TEL":"207-5667","FAX":null,"Full":"59","AgeS":null,"AgeE":null,"Open":"7:00","Close":"20:00","H24":"N","Memo":null,"Extra":null,"Temp":"N","Holiday":"N","Night":null,"Vacancy":"Y","VacancyDate":null}},{"type":"Feature","geometry":{"type":"Point","coordinates":[140.1340283,35.6384415]},"properties":{"Name":"キートスチャイルドケアみつわ台","Label":"キートスチャイルドケアみつわ台","Owner":null,"Ownership":"私立","Proof":"Y","Shanai":"N","Kodomo":"N","Type":"認可保育所","Add1":"千葉市若葉区みつわ台2-36-8","Add2":null,"url":null,"TEL":"301-3244","FAX":null,"Full":"19","AgeS":null,"AgeE":null,"Open":"7:00","Close":"20:00","H24":"N","Memo":null,"Extra":null,"Temp":"Y","Holiday":"N","Night":null,"Vacancy":null,"VacancyDate":null}},{"type":"Feature","geometry":{"type":"Point","coordinates":[140.1477973,35.6366985]},"properties":{"Name":"べびぃまーむ","Label":"べびぃまーむ","Owner":null,"Ownership":"私立","Proof":"Y","Shanai":"N","Kodomo":"N","Type":"認可保育所","Add1":"千葉市若葉区西都賀3-3-12","Add2":null,"url":null,"TEL":"441-6593","FAX":null,"Full":"12","AgeS":null,"AgeE":null,"Open":"7:00","Close":"19:00","H24":"N","Memo":null,"Extra":null,"Temp":"N","Holiday":"N","Night":null,"Vacancy":null,"VacancyDate":null}},{"type":"Feature","geometry":{"type":"Point","coordinates":[140.1739892,35.6372574]},"properties":{"Name":"おうちほいく　もみじのて","Label":"おうちほいく　もみじのて","Owner":null,"Ownership":"私立","Proof":"Y","Shanai":"N","Kodomo":"N","Type":"認可保育所","Add1":"千葉市若葉区若松町2216","Add2":null,"url":null,"TEL":"231-6498","FAX":null,"Full":"3","AgeS":null,"AgeE":null,"Open":"7:00","Close":"20:00","H24":"N","Memo":null,"Extra":null,"Temp":"N","Holiday":"N","Night":null,"Vacancy":null,"VacancyDate":null}},{"type":"Feature","geometry":{"type":"Point","coordinates":[140.145003,35.6362428]},"properties":{"Name":"エデュケア・チルドレン・ハウス　にじ","Label":"エデュケア・チルドレン・ハウス　にじ","Owner":null,"Ownership":"私立","Proof":"Y","Shanai":"N","Kodomo":"N","Type":"認可保育所","Add1":"千葉市若葉区西都賀1丁目","Add2":null,"url":null,"TEL":"251-5978","FAX":null,"Full":"4","AgeS":null,"AgeE":null,"Open":"8:30","Close":"17:30","H24":"N","Memo":null,"Extra":null,"Temp":"N","Holiday":"N","Night":null,"Vacancy":null,"VacancyDate":null}},{"type":"Feature","geometry":{"type":"Point","coordinates":[140.1351142,35.6466513]},"properties":{"Name":"おうちほいく　ふたば","Label":"おうちほいく　ふたば","Owner":null,"Ownership":"私立","Proof":"Y","Shanai":"N","Kodomo":"N","Type":"認可保育所","Add1":"千葉市若葉区みつわ台5丁目","Add2":null,"url":null,"TEL":"206-2468","FAX":null,"Full":"3","AgeS":null,"AgeE":null,"Open":"8:00","Close":"18:00","H24":"N","Memo":null,"Extra":null,"Temp":"N","Holiday":"N","Night":null,"Vacancy":null,"VacancyDate":null}},{"type":"Feature","geometry":{"type":"Point","coordinates":[140.2124477,35.5468545]},"properties":{"Name":"白梅幼稚園","Label":"白梅幼稚園","Owner":null,"Ownership":"私立","Proof":"Y","Shanai":"N","Kodomo":"Y","Type":"認可保育所","Add1":"千葉市緑区誉田町2-24","Add2":null,"url":null,"TEL":"291-0135","FAX":null,"Full":"30","AgeS":null,"AgeE":null,"Open":"7:00","Close":"20:00","H24":"N","Memo":null,"Extra":null,"Temp":"N","Holiday":"N","Night":null,"Vacancy":null,"VacancyDate":null}},{"type":"Feature","geometry":{"type":"Point","coordinates":[140.1728191,35.5649224]},"properties":{"Name":"認定こども園かしの木","Label":"認定こども園かしの木","Owner":null,"Ownership":"私立","Proof":"Y","Shanai":"N","Kodomo":"Y","Type":"認可保育所","Add1":"千葉市緑区おゆみ野2-1-15","Add2":null,"url":null,"TEL":"300-3535","FAX":null,"Full":"45","AgeS":null,"AgeE":null,"Open":"7:00","Close":"20:00","H24":"N","Memo":null,"Extra":null,"Temp":"N","Holiday":"N","Night":null,"Vacancy":null,"VacancyDate":null}},{"type":"Feature","geometry":{"type":"Point","coordinates":[140.182255,35.5736048]},"properties":{"Name":"平山保育所","Label":"平山保育所","Owner":"千葉市","Ownership":"公立","Proof":"Y","Shanai":"N","Kodomo":"N","Type":"認可保育所","Add1":"千葉市緑区平山町138","Add2":null,"url":null,"TEL":"291-1376","FAX":null,"Full":"115","AgeS":null,"AgeE":null,"Open":"7:00","Close":"20:00","H24":"N","Memo":null,"Extra":null,"Temp":"N","Holiday":"N","Night":null,"Vacancy":null,"VacancyDate":null}},{"type":"Feature","geometry":{"type":"Point","coordinates":[140.2055039,35.5463936]},"properties":{"Name":"誉田保育所","Label":"誉田保育所","Owner":"千葉市","Ownership":"公立","Proof":"Y","Shanai":"N","Kodomo":"N","Type":"認可保育所","Add1":"千葉市緑区誉田町2-298","Add2":null,"url":null,"TEL":"291-0575","FAX":null,"Full":"150","AgeS":null,"AgeE":null,"Open":"7:00","Close":"20:00","H24":"N","Memo":null,"Extra":null,"Temp":"N","Holiday":"N","Night":null,"Vacancy":null,"VacancyDate":null}},{"type":"Feature","geometry":{"type":"Point","coordinates":[140.2722937,35.5341022]},"properties":{"Name":"あい・あい保育園 土気園","Label":"あい・あい保育園 土気園","Owner":null,"Ownership":"私立","Proof":"Y","Shanai":"N","Kodomo":"N","Type":"認可保育所","Add1":"千葉市緑区土気町1583-25","Add2":null,"url":null,"TEL":"309-4141","FAX":null,"Full":"58","AgeS":null,"AgeE":null,"Open":"7:00","Close":"20:00","H24":"N","Memo":null,"Extra":null,"Temp":"N","Holiday":"N","Night":null,"Vacancy":"Y","VacancyDate":null}},{"type":"Feature","geometry":{"type":"Point","coordinates":[140.1737439,35.5701219]},"properties":{"Name":"あおぞら保育園","Label":"あおぞら保育園","Owner":null,"Ownership":"私立","Proof":"Y","Shanai":"N","Kodomo":"N","Type":"認可保育所","Add1":"千葉市緑区鎌取町273-146","Add2":null,"url":null,"TEL":"312-0427","FAX":null,"Full":"31","AgeS":null,"AgeE":null,"Open":"7:00","Close":"20:00","H24":"N","Memo":null,"Extra":null,"Temp":"N","Holiday":"N","Night":null,"Vacancy":null,"VacancyDate":null}},{"type":"Feature","geometry":{"type":"Point","coordinates":[140.1748275,35.5622949]},"properties":{"Name":"おゆみ野保育園","Label":"おゆみ野保育園","Owner":null,"Ownership":"私立","Proof":"Y","Shanai":"N","Kodomo":"N","Type":"認可保育所","Add1":"千葉市緑区おゆみ野2-7","Add2":null,"url":null,"TEL":"291-8877","FAX":null,"Full":"90","AgeS":null,"AgeE":null,"Open":"7:00","Close":"20:00","H24":"N","Memo":null,"Extra":null,"Temp":"Y","Holiday":"N","Night":null,"Vacancy":null,"VacancyDate":null}},{"type":"Feature","geometry":{"type":"Point","coordinates":[140.1659477,35.5495628]},"properties":{"Name":"おゆみ野すきっぷ保育園","Label":"おゆみ野すきっぷ保育園","Owner":null,"Ownership":"私立","Proof":"Y","Shanai":"N","Kodomo":"N","Type":"認可保育所","Add1":"千葉市緑区おゆみ野南3-25-1 1F","Add2":null,"url":null,"TEL":"293-3761","FAX":null,"Full":"36","AgeS":null,"AgeE":null,"Open":"7:00","Close":"20:00","H24":"N","Memo":null,"Extra":null,"Temp":"N","Holiday":"N","Night":null,"Vacancy":"Y","VacancyDate":null}},{"type":"Feature","geometry":{"type":"Point","coordinates":[140.1795749,35.5577038]},"properties":{"Name":"かまとり保育園","Label":"かまとり保育園","Owner":null,"Ownership":"私立","Proof":"Y","Shanai":"N","Kodomo":"N","Type":"認可保育所","Add1":"千葉市緑区おゆみ野4-30","Add2":null,"url":null,"TEL":"300-0357","FAX":null,"Full":"90","AgeS":null,"AgeE":null,"Open":"7:00","Close":"20:00","H24":"N","Memo":null,"Extra":null,"Temp":"N","Holiday":"N","Night":null,"Vacancy":null,"VacancyDate":null}},{"type":"Feature","geometry":{"type":"Point","coordinates":[140.1770694,35.5576732]},"properties":{"Name":"かるがも保育園おゆみ野園","Label":"かるがも保育園おゆみ野園","Owner":null,"Ownership":"私立","Proof":"Y","Shanai":"N","Kodomo":"N","Type":"認可保育所","Add1":"千葉市緑区おゆみ野4-23-2","Add2":null,"url":null,"TEL":"300-1152","FAX":null,"Full":"29","AgeS":null,"AgeE":null,"Open":"7:00","Close":"20:00","H24":"N","Memo":null,"Extra":null,"Temp":"N","Holiday":"N","Night":null,"Vacancy":null,"VacancyDate":null}},{"type":"Feature","geometry":{"type":"Point","coordinates":[140.1646445,35.5561788]},"properties":{"Name":"グレース保育園","Label":"グレース保育園","Owner":null,"Ownership":"私立","Proof":"Y","Shanai":"N","Kodomo":"N","Type":"認可保育所","Add1":"千葉市緑区おゆみ野中央2-7-7","Add2":null,"url":null,"TEL":"300-1221","FAX":null,"Full":"120","AgeS":null,"AgeE":null,"Open":"7:00","Close":"20:00","H24":"N","Memo":null,"Extra":null,"Temp":"N","Holiday":"Y","Night":null,"Vacancy":null,"VacancyDate":null}},{"type":"Feature","geometry":{"type":"Point","coordinates":[140.1744803,35.5612784]},"properties":{"Name":"げんき保育園","Label":"げんき保育園","Owner":null,"Ownership":"私立","Proof":"Y","Shanai":"N","Kodomo":"N","Type":"認可保育所","Add1":"千葉市緑区おゆみ野3-26-1","Add2":null,"url":null,"TEL":"293-1844","FAX":null,"Full":"48","AgeS":null,"AgeE":null,"Open":"7:00","Close":"20:00","H24":"N","Memo":null,"Extra":null,"Temp":"N","Holiday":"N","Night":null,"Vacancy":null,"VacancyDate":null}},{"type":"Feature","geometry":{"type":"Point","coordinates":[140.1820855,35.5593457]},"properties":{"Name":"ココファン・ナーサリーおゆみ野","Label":"ココファン・ナーサリーおゆみ野","Owner":null,"Ownership":"私立","Proof":"Y","Shanai":"N","Kodomo":"N","Type":"認可保育所","Add1":"千葉市緑区おゆみ野4-3-5","Add2":null,"url":null,"TEL":"292-8720","FAX":null,"Full":"90","AgeS":null,"AgeE":null,"Open":"7:00","Close":"20:00","H24":"N","Memo":null,"Extra":null,"Temp":"N","Holiday":"N","Night":null,"Vacancy":null,"VacancyDate":null}},{"type":"Feature","geometry":{"type":"Point","coordinates":[140.2218302,35.5500344]},"properties":{"Name":"さくらんぼ保育園","Label":"さくらんぼ保育園","Owner":null,"Ownership":"私立","Proof":"Y","Shanai":"N","Kodomo":"N","Type":"認可保育所","Add1":"千葉市緑区高田町1083-13","Add2":null,"url":null,"TEL":"300-3715","FAX":null,"Full":"30","AgeS":null,"AgeE":null,"Open":"7:00","Close":"20:00","H24":"N","Memo":null,"Extra":null,"Temp":"N","Holiday":"N","Night":null,"Vacancy":null,"VacancyDate":null}},{"type":"Feature","geometry":{"type":"Point","coordinates":[140.1744725,35.5472688]},"properties":{"Name":"真生保育園","Label":"真生保育園","Owner":null,"Ownership":"私立","Proof":"Y","Shanai":"N","Kodomo":"N","Type":"認可保育所","Add1":"千葉市緑区おゆみ野南5-29-1","Add2":null,"url":null,"TEL":"292-9333","FAX":null,"Full":"90","AgeS":null,"AgeE":null,"Open":"7:00","Close":"20:00","H24":"N","Memo":null,"Extra":null,"Temp":"N","Holiday":"N","Night":null,"Vacancy":null,"VacancyDate":null}},{"type":"Feature","geometry":{"type":"Point","coordinates":[140.2131754,35.5474377]},"properties":{"Name":"テンダーラビング保育園誉田","Label":"テンダーラビング保育園誉田","Owner":null,"Ownership":"私立","Proof":"Y","Shanai":"N","Kodomo":"N","Type":"認可保育所","Add1":"千葉市緑区誉田町2-24-7","Add2":null,"url":null,"TEL":"312-1515","FAX":null,"Full":"59","AgeS":null,"AgeE":null,"Open":"7:00","Close":"20:00","H24":"N","Memo":null,"Extra":null,"Temp":"N","Holiday":"N","Night":null,"Vacancy":null,"VacancyDate":null}},{"type":"Feature","geometry":{"type":"Point","coordinates":[140.264345,35.524192]},"properties":{"Name":"ナーセリー鏡戸","Label":"ナーセリー鏡戸","Owner":null,"Ownership":"私立","Proof":"Y","Shanai":"N","Kodomo":"N","Type":"認可保育所","Add1":"千葉市緑区あすみが丘4-21-1","Add2":null,"url":null,"TEL":"295-3686","FAX":null,"Full":"120","AgeS":null,"AgeE":null,"Open":"7:00","Close":"20:00","H24":"N","Memo":null,"Extra":null,"Temp":"Y","Holiday":"N","Night":null,"Vacancy":null,"VacancyDate":null}},{"type":"Feature","geometry":{"type":"Point","coordinates":[140.2626338,35.5313576]},"properties":{"Name":"ニチイキッズあすみが丘保育園","Label":"ニチイキッズあすみが丘保育園","Owner":null,"Ownership":"私立","Proof":"Y","Shanai":"N","Kodomo":"N","Type":"認可保育所","Add1":"千葉市緑区あすみが丘5-6-3","Add2":null,"url":null,"TEL":"205-5367","FAX":null,"Full":"59","AgeS":null,"AgeE":null,"Open":"7:00","Close":"20:00","H24":"N","Memo":null,"Extra":null,"Temp":"N","Holiday":"N","Night":null,"Vacancy":null,"VacancyDate":null}},{"type":"Feature","geometry":{"type":"Point","coordinates":[140.1659256,35.5468908]},"properties":{"Name":"ふたば保育園","Label":"ふたば保育園","Owner":null,"Ownership":"私立","Proof":"Y","Shanai":"N","Kodomo":"N","Type":"認可保育所","Add1":"千葉市緑区刈田子町308-10","Add2":null,"url":null,"TEL":"300-2211","FAX":null,"Full":"130","AgeS":null,"AgeE":null,"Open":"7:00","Close":"20:00","H24":"N","Memo":null,"Extra":null,"Temp":"Y","Holiday":"N","Night":null,"Vacancy":null,"VacancyDate":null}},{"type":"Feature","geometry":{"type":"Point","coordinates":[140.208112,35.5486072]},"properties":{"Name":"誉田おもいやり保育園","Label":"誉田おもいやり保育園","Owner":null,"Ownership":"私立","Proof":"Y","Shanai":"N","Kodomo":"N","Type":"認可保育所","Add1":"千葉市緑区誉田町2-23-290","Add2":null,"url":null,"TEL":"312-1651","FAX":null,"Full":"59","AgeS":null,"AgeE":null,"Open":"7:00","Close":"20:00","H24":"N","Memo":null,"Extra":null,"Temp":"Y","Holiday":"N","Night":null,"Vacancy":"Y","VacancyDate":null}},{"type":"Feature","geometry":{"type":"Point","coordinates":[140.1846722,35.552124]},"properties":{"Name":"マミー＆ミーおゆみ野","Label":"マミー＆ミーおゆみ野","Owner":null,"Ownership":"私立","Proof":"Y","Shanai":"N","Kodomo":"N","Type":"認可保育所","Add1":"千葉市緑区おゆみ野中央6-50-10","Add2":null,"url":null,"TEL":"300-4471","FAX":null,"Full":"20","AgeS":null,"AgeE":null,"Open":"7:00","Close":"20:00","H24":"N","Memo":null,"Extra":null,"Temp":"N","Holiday":"N","Night":null,"Vacancy":null,"VacancyDate":null}},{"type":"Feature","geometry":{"type":"Point","coordinates":[140.2697246,35.5327134]},"properties":{"Name":"明徳土気保育園","Label":"明徳土気保育園","Owner":null,"Ownership":"私立","Proof":"Y","Shanai":"N","Kodomo":"N","Type":"認可保育所","Add1":"千葉市緑区土気町1626-5","Add2":null,"url":null,"TEL":"294-0110","FAX":null,"Full":"120","AgeS":null,"AgeE":null,"Open":"7:00","Close":"20:00","H24":"N","Memo":null,"Extra":null,"Temp":"Y","Holiday":"N","Night":null,"Vacancy":null,"VacancyDate":null}},{"type":"Feature","geometry":{"type":"Point","coordinates":[140.1795252,35.5467634]},"properties":{"Name":"明和輝保育園","Label":"明和輝保育園","Owner":null,"Ownership":"私立","Proof":"Y","Shanai":"N","Kodomo":"N","Type":"認可保育所","Add1":"千葉市緑区おゆみ野中央7-30","Add2":null,"url":null,"TEL":"293-3900","FAX":null,"Full":"90","AgeS":null,"AgeE":null,"Open":"7:00","Close":"20:00","H24":"N","Memo":null,"Extra":null,"Temp":"N","Holiday":"N","Night":null,"Vacancy":null,"VacancyDate":null}},{"type":"Feature","geometry":{"type":"Point","coordinates":[140.187161,35.5476662]},"properties":{"Name":"美光保育園","Label":"美光保育園","Owner":null,"Ownership":"私立","Proof":"Y","Shanai":"N","Kodomo":"N","Type":"認可保育所","Add1":"千葉市緑区大膳野町1-6","Add2":null,"url":null,"TEL":"300-0123","FAX":null,"Full":"90","AgeS":null,"AgeE":null,"Open":"7:00","Close":"20:00","H24":"N","Memo":null,"Extra":null,"Temp":"Y","Holiday":"N","Night":null,"Vacancy":null,"VacancyDate":null}},{"type":"Feature","geometry":{"type":"Point","coordinates":[140.2565679,35.5293631]},"properties":{"Name":"わかくさ保育園","Label":"わかくさ保育園","Owner":null,"Ownership":"私立","Proof":"Y","Shanai":"N","Kodomo":"N","Type":"認可保育所","Add1":"千葉市緑区大椎町1199-2","Add2":null,"url":null,"TEL":"294-5476","FAX":null,"Full":"110","AgeS":null,"AgeE":null,"Open":"7:00","Close":"20:00","H24":"N","Memo":null,"Extra":null,"Temp":"N","Holiday":"N","Night":null,"Vacancy":null,"VacancyDate":null}},{"type":"Feature","geometry":{"type":"Point","coordinates":[140.2683749,35.5289638]},"properties":{"Name":"ミルキーウェイ","Label":"ミルキーウェイ","Owner":null,"Ownership":"私立","Proof":"Y","Shanai":"N","Kodomo":"N","Type":"認可保育所","Add1":"千葉市緑区あすみが丘1-27-2","Add2":null,"url":null,"TEL":"205-8878","FAX":null,"Full":"19","AgeS":null,"AgeE":null,"Open":"7:00","Close":"20:00","H24":"N","Memo":null,"Extra":null,"Temp":"N","Holiday":"N","Night":null,"Vacancy":null,"VacancyDate":null}},{"type":"Feature","geometry":{"type":"Point","coordinates":[140.2704778,35.5214564]},"properties":{"Name":"森のおうちコッコロ","Label":"森のおうちコッコロ","Owner":null,"Ownership":"私立","Proof":"Y","Shanai":"N","Kodomo":"N","Type":"認可保育所","Add1":"千葉市緑区あすみが丘8-1-1","Add2":null,"url":null,"TEL":"205-5056","FAX":null,"Full":"19","AgeS":null,"AgeE":null,"Open":"7:00","Close":"20:00","H24":"N","Memo":null,"Extra":null,"Temp":"N","Holiday":"N","Night":null,"Vacancy":null,"VacancyDate":null}},{"type":"Feature","geometry":{"type":"Point","coordinates":[140.2094896,35.546138]},"properties":{"Name":"まきの木えん","Label":"まきの木えん","Owner":null,"Ownership":"私立","Proof":"Y","Shanai":"N","Kodomo":"N","Type":"認可保育所","Add1":"千葉市緑区誉田町2-2307-142","Add2":null,"url":null,"TEL":"292-9929","FAX":null,"Full":"5","AgeS":null,"AgeE":null,"Open":"8:00","Close":"18:00","H24":"N","Memo":null,"Extra":null,"Temp":"N","Holiday":"N","Night":null,"Vacancy":null,"VacancyDate":null}},{"type":"Feature","geometry":{"type":"Point","coordinates":[140.2650173,35.5206869]},"properties":{"Name":"ひまわり保育室（地域枠）","Label":"ひまわり保育室（地域枠）","Owner":null,"Ownership":"私立","Proof":"Y","Shanai":"Y","Kodomo":"N","Type":"認可保育所","Add1":"千葉市緑区あすみが丘7-2-3","Add2":null,"url":null,"TEL":"294-9457","FAX":null,"Full":"5","AgeS":null,"AgeE":null,"Open":"7:00","Close":"19:00","H24":"N","Memo":null,"Extra":null,"Temp":"N","Holiday":"N","Night":null,"Vacancy":null,"VacancyDate":null}},{"type":"Feature","geometry":{"type":"Point","coordinates":[140.2322986,35.5089682]},"properties":{"Name":"みどりの森めばえ（地域枠）","Label":"みどりの森めばえ（地域枠）","Owner":null,"Ownership":"私立","Proof":"Y","Shanai":"Y","Kodomo":"N","Type":"認可保育所","Add1":"千葉市緑区大木戸町1200-68","Add2":null,"url":null,"TEL":"205-5151","FAX":null,"Full":"7","AgeS":null,"AgeE":null,"Open":"7:00","Close":"19:00","H24":"N","Memo":null,"Extra":null,"Temp":"N","Holiday":"N","Night":null,"Vacancy":null,"VacancyDate":null}},{"type":"Feature","geometry":{"type":"Point","coordinates":[140.099549,35.6154205]},"properties":{"Name":"幸認定こども園","Label":"幸認定こども園","Owner":"千葉市","Ownership":"公立","Proof":"Y","Shanai":"N","Kodomo":"Y","Type":"認可保育所","Add1":"千葉市美浜区幸町1-17-6","Add2":null,"url":null,"TEL":"247-7346","FAX":null,"Full":"108","AgeS":null,"AgeE":null,"Open":"7:00","Close":"19:00","H24":"N","Memo":null,"Extra":null,"Temp":"N","Holiday":"N","Night":null,"Vacancy":"Y","VacancyDate":null}},{"type":"Feature","geometry":{"type":"Point","coordinates":[140.0481026,35.6430571]},"properties":{"Name":"幼保連携型認定こども園打瀬保育園","Label":"認定こども園打瀬保育園","Owner":null,"Ownership":"私立","Proof":"Y","Shanai":"N","Kodomo":"Y","Type":"認可保育所","Add1":"千葉市美浜区打瀬1-3-5","Add2":null,"url":null,"TEL":"273-6631","FAX":null,"Full":"127","AgeS":null,"AgeE":null,"Open":"7:00","Close":"20:00","H24":"N","Memo":null,"Extra":null,"Temp":"N","Holiday":"N","Night":null,"Vacancy":null,"VacancyDate":null}},{"type":"Feature","geometry":{"type":"Point","coordinates":[140.0768201,35.6225738]},"properties":{"Name":"千葉女子専門学校附属聖こども園","Label":"千葉女子専門学校附属聖こども園","Owner":null,"Ownership":"私立","Proof":"Y","Shanai":"N","Kodomo":"Y","Type":"認可保育所","Add1":"千葉市美浜区高洲2-3-24","Add2":null,"url":null,"TEL":"245-0626","FAX":null,"Full":"97","AgeS":null,"AgeE":null,"Open":"7:00","Close":"20:00","H24":"N","Memo":null,"Extra":null,"Temp":"N","Holiday":"N","Night":null,"Vacancy":null,"VacancyDate":null}},{"type":"Feature","geometry":{"type":"Point","coordinates":[140.0377974,35.6655541]},"properties":{"Name":"幕張海浜保育園","Label":"幕張海浜保育園","Owner":null,"Ownership":"私立","Proof":"Y","Shanai":"N","Kodomo":"Y","Type":"認可保育所","Add1":"千葉市美浜区幕張西2-7-2","Add2":null,"url":null,"TEL":"273-2266","FAX":null,"Full":"149","AgeS":null,"AgeE":null,"Open":"7:00","Close":"20:00","H24":"N","Memo":null,"Extra":null,"Temp":"Y","Holiday":"N","Night":null,"Vacancy":null,"VacancyDate":null}},{"type":"Feature","geometry":{"type":"Point","coordinates":[140.0663653,35.6298505]},"properties":{"Name":"磯辺保育所","Label":"磯辺保育所","Owner":"千葉市","Ownership":"公立","Proof":"Y","Shanai":"N","Kodomo":"N","Type":"認可保育所","Add1":"千葉市美浜区磯辺1-3-1","Add2":null,"url":null,"TEL":"277-3661","FAX":null,"Full":"105","AgeS":null,"AgeE":null,"Open":"7:00","Close":"19:00","H24":"N","Memo":null,"Extra":null,"Temp":"N","Holiday":"N","Night":null,"Vacancy":"Y","VacancyDate":null}},{"type":"Feature","geometry":{"type":"Point","coordinates":[140.0759699,35.6373052]},"properties":{"Name":"稲毛海岸保育所","Label":"稲毛海岸保育所","Owner":"千葉市","Ownership":"公立","Proof":"Y","Shanai":"N","Kodomo":"N","Type":"認可保育所","Add1":"千葉市美浜区稲毛海岸5-6-1","Add2":null,"url":null,"TEL":"241-5620","FAX":null,"Full":"190","AgeS":null,"AgeE":null,"Open":"7:00","Close":"19:00","H24":"N","Memo":null,"Extra":null,"Temp":"N","Holiday":"N","Night":null,"Vacancy":null,"VacancyDate":null}},{"type":"Feature","geometry":{"type":"Point","coordinates":[140.0933104,35.6214607]},"properties":{"Name":"幸第一保育所","Label":"幸第一保育所","Owner":"千葉市","Ownership":"公立","Proof":"Y","Shanai":"N","Kodomo":"N","Type":"認可保育所","Add1":"千葉市美浜区幸町2-12-9","Add2":null,"url":null,"TEL":"241-0825","FAX":null,"Full":"161","AgeS":null,"AgeE":null,"Open":"7:00","Close":"20:00","H24":"N","Memo":null,"Extra":null,"Temp":"N","Holiday":"N","Night":null,"Vacancy":null,"VacancyDate":null}},{"type":"Feature","geometry":{"type":"Point","coordinates":[140.0788449,35.6245791]},"properties":{"Name":"高洲第一保育所","Label":"高洲第一保育所","Owner":"千葉市","Ownership":"公立","Proof":"Y","Shanai":"N","Kodomo":"N","Type":"認可保育所","Add1":"千葉市美浜区高洲2-2-21","Add2":null,"url":null,"TEL":"242-8944","FAX":null,"Full":"94","AgeS":null,"AgeE":null,"Open":"7:00","Close":"19:00","H24":"N","Memo":null,"Extra":null,"Temp":"N","Holiday":"N","Night":null,"Vacancy":"Y","VacancyDate":null}},{"type":"Feature","geometry":{"type":"Point","coordinates":[140.0773923,35.6220961]},"properties":{"Name":"高洲第二保育所","Label":"高洲第二保育所","Owner":"千葉市","Ownership":"公立","Proof":"Y","Shanai":"N","Kodomo":"N","Type":"認可保育所","Add1":"千葉市美浜区高洲2-3-19","Add2":null,"url":null,"TEL":"245-0631","FAX":null,"Full":"61","AgeS":null,"AgeE":null,"Open":"7:00","Close":"19:00","H24":"N","Memo":null,"Extra":null,"Temp":"N","Holiday":"N","Night":null,"Vacancy":"Y","VacancyDate":null}},{"type":"Feature","geometry":{"type":"Point","coordinates":[140.0756451,35.6271621]},"properties":{"Name":"高洲第三保育所","Label":"高洲第三保育所","Owner":"千葉市","Ownership":"公立","Proof":"Y","Shanai":"N","Kodomo":"N","Type":"認可保育所","Add1":"千葉市美浜区高洲3-2-14","Add2":null,"url":null,"TEL":"278-3390","FAX":null,"Full":"155","AgeS":null,"AgeE":null,"Open":"7:00","Close":"20:00","H24":"N","Memo":null,"Extra":null,"Temp":"N","Holiday":"N","Night":null,"Vacancy":null,"VacancyDate":null}},{"type":"Feature","geometry":{"type":"Point","coordinates":[140.0749508,35.6195491]},"properties":{"Name":"高浜第一保育所","Label":"高浜第一保育所","Owner":"千葉市","Ownership":"公立","Proof":"Y","Shanai":"N","Kodomo":"N","Type":"認可保育所","Add1":"千葉市美浜区高浜1-4-3","Add2":null,"url":null,"TEL":"246-1955","FAX":null,"Full":"49","AgeS":null,"AgeE":null,"Open":"7:00","Close":"19:00","H24":"N","Memo":null,"Extra":null,"Temp":"N","Holiday":"N","Night":null,"Vacancy":"Y","VacancyDate":null}},{"type":"Feature","geometry":{"type":"Point","coordinates":[140.0684065,35.6408742]},"properties":{"Name":"真砂第一保育所","Label":"真砂第一保育所","Owner":"千葉市","Ownership":"公立","Proof":"Y","Shanai":"N","Kodomo":"N","Type":"認可保育所","Add1":"千葉市美浜区真砂2-22-13","Add2":null,"url":null,"TEL":"277-5918","FAX":null,"Full":"128","AgeS":null,"AgeE":null,"Open":"7:00","Close":"19:00","H24":"N","Memo":null,"Extra":null,"Temp":"Y","Holiday":"N","Night":null,"Vacancy":null,"VacancyDate":null}},{"type":"Feature","geometry":{"type":"Point","coordinates":[140.0643568,35.6455459]},"properties":{"Name":"真砂第二保育所","Label":"真砂第二保育所","Owner":"千葉市","Ownership":"公立","Proof":"Y","Shanai":"N","Kodomo":"N","Type":"認可保育所","Add1":"千葉市美浜区真砂5-19-1","Add2":null,"url":null,"TEL":"277-5919","FAX":null,"Full":"131","AgeS":null,"AgeE":null,"Open":"7:00","Close":"19:00","H24":"N","Memo":null,"Extra":null,"Temp":"N","Holiday":"N","Night":null,"Vacancy":null,"VacancyDate":null}},{"type":"Feature","geometry":{"type":"Point","coordinates":[140.0598989,35.6436767]},"properties":{"Name":"真砂第三保育所","Label":"真砂第三保育所","Owner":"千葉市","Ownership":"公立","Proof":"Y","Shanai":"N","Kodomo":"N","Type":"認可保育所","Add1":"千葉市美浜区真砂5-44-1","Add2":null,"url":null,"TEL":"278-3993","FAX":null,"Full":"149","AgeS":null,"AgeE":null,"Open":"7:00","Close":"19:00","H24":"N","Memo":null,"Extra":null,"Temp":"N","Holiday":"N","Night":null,"Vacancy":null,"VacancyDate":null}},{"type":"Feature","geometry":{"type":"Point","coordinates":[140.0415056,35.6516948]},"properties":{"Name":"アスク海浜幕張保育園","Label":"アスク海浜幕張保育園","Owner":null,"Ownership":"私立","Proof":"Y","Shanai":"N","Kodomo":"N","Type":"認可保育所","Add1":"千葉市美浜区中瀬1-3 1F","Add2":null,"url":null,"TEL":"296-3200","FAX":null,"Full":"51","AgeS":null,"AgeE":null,"Open":"7:00","Close":"20:00","H24":"N","Memo":null,"Extra":null,"Temp":"N","Holiday":"N","Night":null,"Vacancy":null,"VacancyDate":null}},{"type":"Feature","geometry":{"type":"Point","coordinates":[140.0614378,35.6387217]},"properties":{"Name":"アップルナースリー検見川浜保育園","Label":"アップルナースリー検見川浜保育園","Owner":null,"Ownership":"私立","Proof":"Y","Shanai":"N","Kodomo":"N","Type":"認可保育所","Add1":"千葉市美浜区真砂4-1-10 5F","Add2":null,"url":null,"TEL":"270-2501","FAX":null,"Full":"32","AgeS":null,"AgeE":null,"Open":"7:00","Close":"20:00","H24":"N","Memo":null,"Extra":null,"Temp":"N","Holiday":"N","Night":null,"Vacancy":null,"VacancyDate":null}},{"type":"Feature","geometry":{"type":"Point","coordinates":[140.0420001,35.648448]},"properties":{"Name":"第２幕張海浜保育園","Label":"第２幕張海浜保育園","Owner":null,"Ownership":"私立","Proof":"Y","Shanai":"N","Kodomo":"N","Type":"認可保育所","Add1":"千葉市美浜区ひび野2-110","Add2":null,"url":null,"TEL":"216-2255","FAX":null,"Full":"36","AgeS":null,"AgeE":null,"Open":"7:00","Close":"20:00","H24":"N","Memo":null,"Extra":null,"Temp":"N","Holiday":"N","Night":null,"Vacancy":null,"VacancyDate":null}},{"type":"Feature","geometry":{"type":"Point","coordinates":[140.0803112,35.635336]},"properties":{"Name":"たかし保育園稲毛海岸","Label":"たかし保育園稲毛海岸","Owner":null,"Ownership":"私立","Proof":"Y","Shanai":"N","Kodomo":"N","Type":"認可保育所","Add1":"千葉市美浜区稲毛海岸3-1-30 2F","Add2":null,"url":null,"TEL":"243-8222","FAX":null,"Full":"39","AgeS":null,"AgeE":null,"Open":"7:00","Close":"20:00","H24":"N","Memo":null,"Extra":null,"Temp":"N","Holiday":"N","Night":null,"Vacancy":null,"VacancyDate":null}},{"type":"Feature","geometry":{"type":"Point","coordinates":[140.0456223,35.6381882]},"properties":{"Name":"茶々まくはり保育園","Label":"茶々まくはり保育園","Owner":null,"Ownership":"私立","Proof":"Y","Shanai":"N","Kodomo":"N","Type":"認可保育所","Add1":"千葉市美浜区打瀬2―18-2","Add2":null,"url":null,"TEL":"276-5753","FAX":null,"Full":"129","AgeS":null,"AgeE":null,"Open":"7:00","Close":"20:00","H24":"N","Memo":null,"Extra":null,"Temp":"Y","Holiday":"N","Night":null,"Vacancy":null,"VacancyDate":null}},{"type":"Feature","geometry":{"type":"Point","coordinates":[140.0645625,35.6384468]},"properties":{"Name":"チューリップ保育園","Label":"チューリップ保育園","Owner":null,"Ownership":"私立","Proof":"Y","Shanai":"N","Kodomo":"N","Type":"認可保育所","Add1":"千葉市美浜区真砂3-15-14","Add2":null,"url":null,"TEL":"279-4863","FAX":null,"Full":"153","AgeS":null,"AgeE":null,"Open":"7:00","Close":"20:00","H24":"N","Memo":null,"Extra":null,"Temp":"N","Holiday":"N","Night":null,"Vacancy":null,"VacancyDate":null}},{"type":"Feature","geometry":{"type":"Point","coordinates":[140.0700095,35.6224625]},"properties":{"Name":"なぎさ保育園","Label":"なぎさ保育園","Owner":null,"Ownership":"私立","Proof":"Y","Shanai":"N","Kodomo":"N","Type":"認可保育所","Add1":"千葉市美浜区高浜4-4-1","Add2":null,"url":null,"TEL":"277-3466","FAX":null,"Full":"93","AgeS":null,"AgeE":null,"Open":"7:00","Close":"20:00","H24":"N","Memo":null,"Extra":null,"Temp":"N","Holiday":"N","Night":null,"Vacancy":null,"VacancyDate":null}},{"type":"Feature","geometry":{"type":"Point","coordinates":[140.100149,35.6157705]},"properties":{"Name":"なのはな保育園","Label":"なのはな保育園","Owner":null,"Ownership":"私立","Proof":"Y","Shanai":"N","Kodomo":"N","Type":"認可保育所","Add1":"千葉市美浜区幸町1-21-8","Add2":null,"url":null,"TEL":"248-2478","FAX":null,"Full":"29","AgeS":null,"AgeE":null,"Open":"7:00","Close":"20:00","H24":"N","Memo":null,"Extra":null,"Temp":"Y","Holiday":"N","Night":null,"Vacancy":null,"VacancyDate":null}},{"type":"Feature","geometry":{"type":"Point","coordinates":[140.0777199,35.6299701]},"properties":{"Name":"まどか保育園","Label":"まどか保育園","Owner":null,"Ownership":"私立","Proof":"Y","Shanai":"N","Kodomo":"N","Type":"認可保育所","Add1":"千葉市美浜区高洲1-15-2","Add2":null,"url":null,"TEL":"277-2551","FAX":null,"Full":"100","AgeS":null,"AgeE":null,"Open":"7:00","Close":"20:00","H24":"N","Memo":null,"Extra":null,"Temp":"N","Holiday":"N","Night":null,"Vacancy":null,"VacancyDate":null}},{"type":"Feature","geometry":{"type":"Point","coordinates":[140.0420837,35.6365633]},"properties":{"Name":"みらい保育園","Label":"みらい保育園","Owner":null,"Ownership":"私立","Proof":"Y","Shanai":"N","Kodomo":"N","Type":"認可保育所","Add1":"千葉市美浜区打瀬3-11-3","Add2":null,"url":null,"TEL":"213-2727","FAX":null,"Full":"145","AgeS":null,"AgeE":null,"Open":"7:00","Close":"20:00","H24":"N","Memo":null,"Extra":null,"Temp":"Y","Holiday":"Y","Night":null,"Vacancy":null,"VacancyDate":null}},{"type":"Feature","geometry":{"type":"Point","coordinates":[140.0596852,35.6339111]},"properties":{"Name":"もみじ保育園","Label":"もみじ保育園","Owner":null,"Ownership":"私立","Proof":"Y","Shanai":"N","Kodomo":"N","Type":"認可保育所","Add1":"千葉市美浜区磯辺5-14-5","Add2":null,"url":null,"TEL":"277-5355","FAX":null,"Full":"132","AgeS":null,"AgeE":null,"Open":"7:00","Close":"20:00","H24":"N","Memo":null,"Extra":null,"Temp":"N","Holiday":"N","Night":null,"Vacancy":null,"VacancyDate":null}},{"type":"Feature","geometry":{"type":"Point","coordinates":[140.0720453,35.6313115]},"properties":{"Name":"若梅保育園","Label":"若梅保育園","Owner":null,"Ownership":"私立","Proof":"Y","Shanai":"N","Kodomo":"N","Type":"認可保育所","Add1":"千葉市美浜区高洲4-5-9","Add2":null,"url":null,"TEL":"278-0260","FAX":null,"Full":"139","AgeS":null,"AgeE":null,"Open":"7:00","Close":"20:00","H24":"N","Memo":null,"Extra":null,"Temp":"N","Holiday":"N","Night":null,"Vacancy":null,"VacancyDate":null}},{"type":"Feature","geometry":{"type":"Point","coordinates":[140.0912856,35.6207718]},"properties":{"Name":"千葉白菊幼稚園附属しらぎくナーサリー","Label":"千葉白菊幼稚園附属しらぎくナーサリー","Owner":null,"Ownership":"私立","Proof":"Y","Shanai":"N","Kodomo":"N","Type":"認可保育所","Add1":"千葉市美浜区幸町2-12-8","Add2":null,"url":null,"TEL":"241-6600","FAX":null,"Full":"20","AgeS":null,"AgeE":null,"Open":"7:00","Close":"19:00","H24":"N","Memo":null,"Extra":null,"Temp":"N","Holiday":"N","Night":null,"Vacancy":null,"VacancyDate":null}},{"type":"Feature","geometry":{"type":"Point","coordinates":[0,0]},"properties":{"Name":"おうちほいく　すみれ","Label":"おうちほいく　すみれ","Owner":null,"Ownership":"私立","Proof":"Y","Shanai":"N","Kodomo":"N","Type":"認可保育所","Add1":"千葉市美浜区浜田","Add2":null,"url":null,"TEL":"270-3150","FAX":null,"Full":"3","AgeS":null,"AgeE":null,"Open":"8:00","Close":"18:00","H24":"N","Memo":"連絡先は、美浜区こども家庭課","Extra":null,"Temp":"N","Holiday":"N","Night":null,"Vacancy":null,"VacancyDate":null}},{"type":"Feature","geometry":{"type":"Point","coordinates":[140.0535635,35.6363803]},"properties":{"Name":"美浜ナーサリーささえ愛（地域枠）","Label":"美浜ナーサリーささえ愛（地域枠）","Owner":null,"Ownership":"私立","Proof":"Y","Shanai":"Y","Kodomo":"N","Type":"認可保育所","Add1":"千葉市美浜区磯辺6-3-9","Add2":null,"url":null,"TEL":"270-6100","FAX":null,"Full":"10","AgeS":null,"AgeE":null,"Open":"7:00","Close":"19:00","H24":"N","Memo":null,"Extra":null,"Temp":"N","Holiday":"N","Night":null,"Vacancy":"Y","VacancyDate":null}},{"type":"Feature","geometry":{"type":"Point","coordinates":[140.0292121,35.6543607]},"properties":{"Name":"イオンゆめみらい保育園（地域枠）","Label":"イオンゆめみらい保育園（地域枠）","Owner":null,"Ownership":"私立","Proof":"Y","Shanai":"Y","Kodomo":"N","Type":"認可保育所","Add1":"千葉市美浜区豊砂1-1 1F","Add2":null,"url":null,"TEL":"306-6110","FAX":null,"Full":"3","AgeS":null,"AgeE":null,"Open":"7:00","Close":"22:00","H24":"N","Memo":null,"Extra":null,"Temp":"N","Holiday":"Y","Night":null,"Vacancy":null,"VacancyDate":null}},{"type":"Feature","geometry":{"type":"Point","coordinates":[140.133505,35.5769874]},"properties":{"Name":"そがチャイルドハウス","Label":"そがチャイルドハウス","Owner":null,"Ownership":"私立","Proof":"Y","Shanai":"N","Kodomo":"N","Type":"認可外","Add1":"千葉市中央区南町3-12-1","Add2":null,"url":null,"TEL":"488-5445","FAX":null,"Full":"22","AgeS":null,"AgeE":null,"Open":"7:00","Close":"19:00","H24":"N","Memo":null,"Extra":null,"Temp":"Y","Holiday":"N","Night":null,"Vacancy":null,"VacancyDate":null}},{"type":"Feature","geometry":{"type":"Point","coordinates":[140.0951501,35.6375579]},"properties":{"Name":"キッズルームKORU","Label":"キッズルームKORU","Owner":null,"Ownership":"私立","Proof":"Y","Shanai":"N","Kodomo":"N","Type":"認可外","Add1":"千葉市稲毛区小仲台2-8-25 第8横土ビル1F","Add2":null,"url":null,"TEL":"251-0220","FAX":null,"Full":"34","AgeS":null,"AgeE":null,"Open":"7:00","Close":"19:00","H24":"N","Memo":null,"Extra":null,"Temp":"Y","Holiday":"N","Night":null,"Vacancy":null,"VacancyDate":null}},{"type":"Feature","geometry":{"type":"Point","coordinates":[140.1715232,35.6278832]},"properties":{"Name":"たくみん保育園","Label":"たくみん保育園","Owner":null,"Ownership":"私立","Proof":"Y","Shanai":"N","Kodomo":"N","Type":"認可外","Add1":"千葉市若葉区小倉台4-19-2","Add2":null,"url":null,"TEL":"214-2711","FAX":null,"Full":"24","AgeS":null,"AgeE":null,"Open":"7:00","Close":"19:00","H24":"N","Memo":null,"Extra":null,"Temp":"Y","Holiday":"N","Night":null,"Vacancy":null,"VacancyDate":null}},{"type":"Feature","geometry":{"type":"Point","coordinates":[140.1489401,35.6337771]},"properties":{"Name":"やまどり保育園","Label":"やまどり保育園","Owner":null,"Ownership":"私立","Proof":"Y","Shanai":"N","Kodomo":"N","Type":"認可外","Add1":"千葉市若葉区都賀2-12-11 技工ビル1F","Add2":null,"url":null,"TEL":"214-5730","FAX":null,"Full":"59","AgeS":null,"AgeE":null,"Open":"7:00","Close":"21:00","H24":"N","Memo":null,"Extra":null,"Temp":"Y","Holiday":"N","Night":null,"Vacancy":null,"VacancyDate":null}},{"type":"Feature","geometry":{"type":"Point","coordinates":[140.178261,35.5596619]},"properties":{"Name":"かるがも保育園","Label":"かるがも保育園","Owner":null,"Ownership":"私立","Proof":"Y","Shanai":"N","Kodomo":"N","Type":"認可外","Add1":"千葉市緑区おゆみ野3-10-7","Add2":null,"url":null,"TEL":"292-8349","FAX":null,"Full":"59","AgeS":null,"AgeE":null,"Open":"7:00","Close":"20:00","H24":"N","Memo":null,"Extra":null,"Temp":"Y","Holiday":"N","Night":null,"Vacancy":null,"VacancyDate":null}},{"type":"Feature","geometry":{"type":"Point","coordinates":[140.2801874,35.5311974]},"properties":{"Name":"子どものまきば保育園","Label":"子どものまきば保育園","Owner":null,"Ownership":"私立","Proof":"Y","Shanai":"N","Kodomo":"N","Type":"認可外","Add1":"千葉市緑区土気町630-8","Add2":null,"url":null,"TEL":"295-3349","FAX":null,"Full":"31","AgeS":null,"AgeE":null,"Open":"7:00","Close":"19:00","H24":"N","Memo":null,"Extra":null,"Temp":"Y","Holiday":"N","Night":null,"Vacancy":null,"VacancyDate":null}},{"type":"Feature","geometry":{"type":"Point","coordinates":[140.0394622,35.6468804]},"properties":{"Name":"キッズガーデン海浜幕張園","Label":"キッズガーデン海浜幕張園","Owner":null,"Ownership":"私立","Proof":"Y","Shanai":"N","Kodomo":"N","Type":"認可外","Add1":"千葉市美浜区ひび野2-1-1 QVCスクエア2F","Add2":null,"url":null,"TEL":"306-6288","FAX":null,"Full":"59","AgeS":null,"AgeE":null,"Open":"7:00","Close":"19:00","H24":"N","Memo":null,"Extra":null,"Temp":"Y","Holiday":"N","Night":null,"Vacancy":null,"VacancyDate":null}},{"type":"Feature","geometry":{"type":"Point","coordinates":[140.1328262,35.5827015]},"properties":{"Name":"かるがも保育園蘇我園","Label":"かるがも保育園蘇我園","Owner":null,"Ownership":"私立","Proof":"Y","Shanai":"N","Kodomo":"N","Type":"認可外","Add1":"千葉市中央区南町2-6-10 初芝ビル101","Add2":null,"url":null,"TEL":"261-8349","FAX":null,"Full":"45","AgeS":null,"AgeE":null,"Open":"7:00","Close":"20:00","H24":"N","Memo":null,"Extra":null,"Temp":"Y","Holiday":"Y","Night":null,"Vacancy":null,"VacancyDate":null}},{"type":"Feature","geometry":{"type":"Point","coordinates":[140.1232242,35.6083746]},"properties":{"Name":"キッズ・ガーデン    ","Label":"キッズ・ガーデン    ","Owner":null,"Ownership":"私立","Proof":"Y","Shanai":"N","Kodomo":"N","Type":"認可外","Add1":"千葉市中央区中央3-13-1 富士屋ビル2F","Add2":null,"url":null,"TEL":"202-3888","FAX":null,"Full":"30","AgeS":null,"AgeE":null,"Open":"7:00","Close":"19:30","H24":"N","Memo":null,"Extra":null,"Temp":"Y","Holiday":"N","Night":null,"Vacancy":null,"VacancyDate":null}},{"type":"Feature","geometry":{"type":"Point","coordinates":[140.126418,35.6176155]},"properties":{"Name":"中央保育所","Label":"中央保育所","Owner":null,"Ownership":"私立","Proof":"Y","Shanai":"N","Kodomo":"N","Type":"認可外","Add1":"千葉市中央区祐光2-11-12 SKマンション213号","Add2":null,"url":null,"TEL":"227-5155","FAX":null,"Full":"130","AgeS":null,"AgeE":null,"Open":"7:00","Close":"21:00","H24":"N","Memo":null,"Extra":null,"Temp":"Y","Holiday":"Y","Night":null,"Vacancy":null,"VacancyDate":null}},{"type":"Feature","geometry":{"type":"Point","coordinates":[140.1215094,35.6021051]},"properties":{"Name":"はっぴぃルーム本千葉駅前園","Label":"はっぴぃルーム本千葉駅前園","Owner":null,"Ownership":"私立","Proof":"Y","Shanai":"N","Kodomo":"N","Type":"認可外","Add1":"千葉市中央区長洲1-24-12 今井ビル1F","Add2":null,"url":null,"TEL":"202-2562","FAX":null,"Full":"28","AgeS":null,"AgeE":null,"Open":"7:30","Close":"21:00","H24":"N","Memo":null,"Extra":null,"Temp":"Y","Holiday":"N","Night":null,"Vacancy":null,"VacancyDate":null}},{"type":"Feature","geometry":{"type":"Point","coordinates":[140.1192707,35.6022049]},"properties":{"Name":"ベビールームこどものへや","Label":"ベビールームこどものへや","Owner":null,"Ownership":"私立","Proof":"Y","Shanai":"N","Kodomo":"N","Type":"認可外","Add1":"千葉市中央区長洲1-33-13 共栄ビル","Add2":null,"url":null,"TEL":"227-0007","FAX":null,"Full":"23","AgeS":null,"AgeE":null,"Open":"8:00","Close":"20:00","H24":"N","Memo":null,"Extra":null,"Temp":"Y","Holiday":"N","Night":null,"Vacancy":null,"VacancyDate":null}},{"type":"Feature","geometry":{"type":"Point","coordinates":[140.1101896,35.6028405]},"properties":{"Name":"リトルガーデン千葉ポートタウン","Label":"リトルガーデン千葉ポートタウン","Owner":null,"Ownership":"私立","Proof":"Y","Shanai":"N","Kodomo":"N","Type":"認可外","Add1":"千葉市中央区問屋町1-50 千葉ポートタウン1F","Add2":null,"url":null,"TEL":"244-8839","FAX":null,"Full":"100","AgeS":null,"AgeE":null,"Open":"7:00","Close":"19:00","H24":"N","Memo":null,"Extra":null,"Temp":"Y","Holiday":"N","Night":null,"Vacancy":null,"VacancyDate":null}},{"type":"Feature","geometry":{"type":"Point","coordinates":[140.0438995,35.6708064]},"properties":{"Name":"エバーキッズ幕張保育園","Label":"エバーキッズ幕張保育園","Owner":null,"Ownership":"私立","Proof":"Y","Shanai":"N","Kodomo":"N","Type":"認可外","Add1":"千葉市花見川区幕張本郷2-4-8","Add2":null,"url":null,"TEL":"276-8451","FAX":null,"Full":"24","AgeS":null,"AgeE":null,"Open":"7:30","Close":"19:00","H24":"N","Memo":null,"Extra":null,"Temp":"Y","Holiday":"N","Night":null,"Vacancy":null,"VacancyDate":null}},{"type":"Feature","geometry":{"type":"Point","coordinates":[140.1078629,35.6771872]},"properties":{"Name":"きっずかりん","Label":"きっずかりん","Owner":null,"Ownership":"私立","Proof":"Y","Shanai":"N","Kodomo":"N","Type":"認可外","Add1":"千葉市花見川区千種町112-1","Add2":null,"url":null,"TEL":"286-7755","FAX":null,"Full":"10","AgeS":null,"AgeE":null,"Open":"8:00","Close":"18:00","H24":"N","Memo":null,"Extra":null,"Temp":"Y","Holiday":"Y","Night":null,"Vacancy":null,"VacancyDate":null}},{"type":"Feature","geometry":{"type":"Point","coordinates":[140.0401642,35.6727878]},"properties":{"Name":"チャイルドケアセンター・プレイディア","Label":"チャイルドケアセンター・プレイディア","Owner":null,"Ownership":"私立","Proof":"Y","Shanai":"N","Kodomo":"N","Type":"認可外","Add1":"千葉市花見川区幕張本郷1-3-22 プリズム幕張本郷1F","Add2":null,"url":null,"TEL":"273-8866","FAX":null,"Full":"29","AgeS":null,"AgeE":null,"Open":"7:45","Close":"19:00","H24":"N","Memo":null,"Extra":null,"Temp":"Y","Holiday":"N","Night":null,"Vacancy":null,"VacancyDate":null}},{"type":"Feature","geometry":{"type":"Point","coordinates":[140.0423634,35.6754919]},"properties":{"Name":"KIDDY KINGDOM","Label":"KIDDY KINGDOM","Owner":null,"Ownership":"私立","Proof":"Y","Shanai":"N","Kodomo":"N","Type":"認可外","Add1":"千葉市花見川区幕張本郷6-15-2","Add2":null,"url":null,"TEL":"308-9552","FAX":null,"Full":"20","AgeS":null,"AgeE":null,"Open":"7:00","Close":"19:00","H24":"N","Memo":null,"Extra":null,"Temp":"Y","Holiday":"N","Night":null,"Vacancy":null,"VacancyDate":null}},{"type":"Feature","geometry":{"type":"Point","coordinates":[140.0723781,35.6504231]},"properties":{"Name":"キャンディ検見川園","Label":"キャンディ検見川園","Owner":null,"Ownership":"私立","Proof":"Y","Shanai":"N","Kodomo":"N","Type":"認可外","Add1":"千葉市花見川区検見川町3-302-25","Add2":null,"url":null,"TEL":"310-3577","FAX":null,"Full":"22","AgeS":null,"AgeE":null,"Open":"7:30","Close":"19:00","H24":"N","Memo":null,"Extra":null,"Temp":"Y","Holiday":"N","Night":null,"Vacancy":null,"VacancyDate":null}},{"type":"Feature","geometry":{"type":"Point","coordinates":[140.0724072,35.6512756]},"properties":{"Name":"新検見川駅前保育園","Label":"新検見川駅前保育園","Owner":null,"Ownership":"私立","Proof":"Y","Shanai":"N","Kodomo":"N","Type":"認可外","Add1":"千葉市花見川区南花園2-2-12 アコルデ新検見川201","Add2":null,"url":null,"TEL":"301-2877","FAX":null,"Full":"40","AgeS":null,"AgeE":null,"Open":"7:30","Close":"19:00","H24":"N","Memo":null,"Extra":null,"Temp":"Y","Holiday":"N","Night":null,"Vacancy":null,"VacancyDate":null}},{"type":"Feature","geometry":{"type":"Point","coordinates":[140.1017214,35.6876221]},